[
  {
    "media": "(아는 건 별로 없지만) 가족입니다",
    "name": "커피파머",
    "detail": "6회에서 김은희(한예리)와 안효석(이종원)이 윤태형(김태호)의 은신처에서 서울로 돌아갈 때 이 카페에 들린다.",
    "latitude": 37.667523,
    "longitude": 126.72817
  },
  {
    "media": "(아는 건 별로 없지만) 가족입니다",
    "name": "셀렉토커피 남양주호평점",
    "detail": "10회에서 하라(배윤경)는 은희(한예리)에게 이 커피숍에서 만나자고 메시지를 보낸다. 그녀는 은희에게 곧 미국으로 돌아간다고 알리고 건주(신동욱)에 대한 이야기를 이어간다.",
    "latitude": 37.663558,
    "longitude": 127.24748
  },
  {
    "media": "(아는 건 별로 없지만) 가족입니다",
    "name": "카페 그루비",
    "detail": "안효석(이종원)은 바리스타로, 김은주(추자현)는 단골손님이다. 1화에서 이진숙(원미경)이 자녀와 사위에게 폭탄을 떨어뜨리는 장면이 나온다.",
    "latitude": 37.293983,
    "longitude": 127.05538
  },
  {
    "media": "(아는 건 별로 없지만) 가족입니다",
    "name": "미리내 성지",
    "detail": "시누이 도혜지(황우슬혜)는 남편이 가문의 회사를 상속받을 수 있도록 그녀가 길을 잃지 않기를 바라는 한편, 세리의 비서 홍씨(고규필)과 동시에 그녀가 가능한 한 빨리 발견되기를 기도한다.",
    "latitude": 37.146102,
    "longitude": 127.25865
  },
  {
    "media": "(아는 건 별로 없지만) 가족입니다",
    "name": "초은당",
    "detail": "김은희(한예리)와 동료 서경옥(가득희)은 1회에서 작가 의뢰인을 만나기 위해 이 한옥을 방문한다. 추후 은희는 여기로 돌아와 작가의 명상 세션에 참여합니다. 은희는 눈을 감고 자신의 인생에서 가장 긴 날인 2016년 3월 10일을 회상한다. 세션이 끝난 후 동생 김지우(신재하)와 소원해진 절친 박찬을 보고 놀란다.",
    "latitude": 37.611484,
    "longitude": 127.35397
  },
  {
    "media": "(아는 건 별로 없지만) 가족입니다",
    "name": "임진각평화누리",
    "detail": "10회 P&F에서 계약 체결 후 박찬혁(김석)은 김은희(한예리)에게 그가 가고 싶은 곳이 있다고 말한다. 은희는 찬혁에게 함께 가자고 말한다.",
    "latitude": 37.892963,
    "longitude": 126.74435
  },
  {
    "media": "(아는 건 별로 없지만) 가족입니다",
    "name": "지혜의 숲",
    "detail": "15회에서 김은희(한예리)가 이 도서관에서 독립출판사 되기 세미나에 참석하는 모습과 건주 (신동욱)이 화자로 밝혀졌다. 세미나가 끝난 후 두 사람은 대화를 나누는데, 건주는 자신이 그녀의 계획을 따랐다고 말하며 그녀는 이를 반박한다. 그런 다음 그는 그녀가 직장을 그만두기 전에 미국에서 교육 프로그램을 신청해야 한다고 제안합니다. 그들은 밖으로 나갔고 건주는 은희가 해명하지 않으면 기분이 나쁠까 걱정하며 하라와 함께 그 주를 언급한다.",
    "latitude": 37.7082492,
    "longitude": 126.686674
  },
  {
    "media": "(아는 건 별로 없지만) 가족입니다",
    "name": "카페 종이와 나무",
    "detail": "다구 회장(이덕화 분)이 가장 좋아하는 일일 드라마의 촬영 장소 중 하나로 등장, 회장 자신이 이곳에서 조유정(서혜원)의 어머니 진채림(김영아)과 만나 조유정(서혜원)의 손자 강태무(안효섭)와 딸이 서로를 만나기 시작했다.",
    "latitude": 37.720328,
    "longitude": 126.69388
  },
  {
    "media": "(아는 건 별로 없지만) 가족입니다",
    "name": "퀸즈파크 청담점",
    "detail": "김은희(한예리), 그녀의 동료 친구 서경옥(가득희), 그리고 그녀의 새로운 지인 전하라(배윤경)는 8회에서 쇼핑을 마치고 이 식당에서 저녁을 먹기로 결정했다.",
    "latitude": 37.52592,
    "longitude": 127.04159
  },
  {
    "media": "(아는 건 별로 없지만) 가족입니다",
    "name": "혜심정",
    "detail": "13회에서 쉬는 날 박찬혁(김지석 분)을 자발적으로 초대해 이 식당에 함께 간다.",
    "latitude": 37.67139,
    "longitude": 127.00698
  },
  {
    "media": "(아는 건 별로 없지만) 가족입니다",
    "name": "가든포에트",
    "detail": "9화에서 이진숙(원미경)과 딸 김은주(추자현)가 찾아온 카페이다",
    "latitude": 37.55016,
    "longitude": 126.9237
  },
  {
    "media": "(아는 건 별로 없지만) 가족입니다",
    "name": "구룡근린공원",
    "detail": "12회에서 김지우(신재하 분)와 윤서영(신혜정/혜정 분)이 이 공원에서 회사 제품 화보 촬영을 한다.",
    "latitude": 37.582996,
    "longitude": 126.88385
  },
  {
    "media": "(아는 건 별로 없지만) 가족입니다",
    "name": "월드컵공원",
    "detail": "12회에서 김은희(한예리)와 박찬혁(김지석)이 진솔한 이야기를 나누기 위해 이 공원을 찾아온다.",
    "latitude": 37.5708905,
    "longitude": 126.878429
  },
  {
    "media": "(아는 건 별로 없지만) 가족입니다",
    "name": "소월로 계단 3번",
    "detail": "김상식(정진영)은 12회에서 아내 이진숙(원미경)을 데리고 이 계단으로 나와 아이들에게 커피 테이크아웃을 시켜준다.",
    "latitude": 37.547514,
    "longitude": 126.98424
  },
  {
    "media": "(아는 건 별로 없지만) 가족입니다",
    "name": "대학로11길",
    "detail": "김은희(김지석)는 이곳을 지나가다가 학생들이 걸어가는 방향을 피해서 김은희(예한) 학생들을 붙잡는다. 그리고 나서 그는 그녀의 손을 잡을 기회를 잡는다. 잠시 말문이 막힌 은희가 어색하지 않게 손을 뗀다.",
    "latitude": 37.582193,
    "longitude": 127.00092
  },
  {
    "media": "(아는 건 별로 없지만) 가족입니다",
    "name": "커피한약방 혜화점",
    "detail": "김상식(정진영)은 온라인에서 나이 많은 커플들의 좋은 데이트 장소로 검색해 아내 이진숙(원미경)을 데려왔다. 그는 온라인에서 읽은 데이트 조언에 따라 커피를 마시면서 휴대 전화에 사진을 보여줍니다. (진심어린 대화로 상황이 더 진지해질 때까지.)",
    "latitude": 37.580861,
    "longitude": 127.0048
  },
  {
    "media": "(아는 건 별로 없지만) 가족입니다",
    "name": "포시즌스호텔",
    "detail": "12화에서 바리스터 안효석(이종원)이 김은주(추자현)에게 작별인사를 하고 있다.",
    "latitude": 37.57065,
    "longitude": 126.9754
  },
  {
    "media": "(아는 건 별로 없지만) 가족입니다",
    "name": "푸른기린주차장",
    "detail": "김은희(한예리)는 4년 만에 만난 박찬혁(김지욱)과 저녁을 먹기 위해 이 주차장에 차를 주차했다. 저녁식사 후, 그는 주차비를 지불하고 그녀를 배웅해 준다.",
    "latitude": 37.581775,
    "longitude": 126.981418
  },
  {
    "media": "(아는 건 별로 없지만) 가족입니다",
    "name": "이비스 스타일 앰배서더 명동",
    "detail": "계약 체결 중 박찬혁(김지석)은 그날 밤 김은주(추자현)로부터 만나자고 연락을 받는다. 그는 이 술집에서 은주를 만난다. 은주의 결혼 사진과 가족 문제에 대해 이야기한다.",
    "latitude": 37.56169,
    "longitude": 126.9894
  },
  {
    "media": "(아는 건 별로 없지만) 가족입니다",
    "name": "덕수궁 돌담길",
    "detail": "10회 방송에서는 술 취한 찬혁(김지석)과 술 취한 은희(한예리)가 20대 가을의 추억을 되새기기 위해 이 산책로를 찾았다.",
    "latitude": 37.565924,
    "longitude": 126.97501
  },
  {
    "media": "(아는 건 별로 없지만) 가족입니다",
    "name": "목남갤러리카페",
    "detail": "카페의 옥상(실은 이곳이 옥상)에서 그녀에게 고백을 하고 두 사람은 이별의 키스로 저녁을 마무리한다. 은희는 언니의 차가 도착하는 것을 보고 갑자기 자신의 심장이 방금 키스한 사람이 아니라 다른 사람을 위해 뛰고 있다는 걸 깨닫는다",
    "latitude": 37.563753,
    "longitude": 127.00979
  },
  {
    "media": "(아는 건 별로 없지만) 가족입니다",
    "name": "그랜드 하얏트 인천",
    "detail": "1회에서 김은희(한예리)사 P&F 북의 신임 부사장 임건주(신동욱)를 위한 환영 만찬은 펼쳐진다. 안으로 들어서자 결혼 1주년을 맞아 아내가 도착하기를 기다리는 전 남자친구 이종민(최웅 분)과 마주친다.",
    "latitude": 37.440449,
    "longitude": 126.45747
  },
  {
    "media": "(아는 건 별로 없지만) 가족입니다",
    "name": "고흥우주발사전망대",
    "detail": "은신처로 가는 길에 윤태형(김태훈)은 5화에서 전망을 보기 위해 이 전망대 전망대에 잠시 들른다. 6회에서는 김은희(한예리)와 박찬혁(김지석)도 태형(은희의 처남)을 찾기 위해 이곳에 들르는 모습이 그려졌다.",
    "latitude": 34.585051,
    "longitude": 127.49236
  },
  {
    "media": "(아는 건 별로 없지만) 가족입니다",
    "name": "파도리해수욕장",
    "detail": "김은주(추자현)가 윤태형(김태훈)을 깜짝 찾아오자 두 사람은 이 해변을 찾아오며 최종 16회를 마무리 짓는다.",
    "latitude": 36.738979,
    "longitude": 126.13356
  },
  {
    "media": "#좋맛탱: 좋은 맛에 취하다",
    "name": "카우카우펍 합정점",
    "detail": "그녀에게 끌리는 오싹한 선배 지수와 함께 밥을 먹는다. 실수로 언니의 셔츠에 소스를 바르고, 동생이 닦자고 손을 뻗기도 전에 같은 반 친구 이연남(김민규)이 그녀를 데리고 화장실로 가자고 한다. 연남은 충남에게 아침 일찍 장난을 쳤던 것에 대해 사과하고, 둘은 서로에게 별 감정 없음을 확인하고 친구가 되기로 한다.",
    "latitude": 37.548497,
    "longitude": 126.914483
  },
  {
    "media": "#좋맛탱: 좋은 맛에 취하다",
    "name": "데코아발림 본점",
    "detail": "충남이 카페의 용암초콜릿 케이크가 먹고 싶었다. SNS에 올라온 부정적인 댓글 때문에 자신이 부족하다고 느끼지만, 연남은 그녀에게 자신을 격려한다. 시크릿가든 스타일로 충남과의 키스를 꿈꾸는 연남이도 여기에 있다.",
    "latitude": 37.548376,
    "longitude": 126.92179
  },
  {
    "media": "#좋맛탱: 좋은 맛에 취하다",
    "name": "정항우케익 서울연남점",
    "detail": "그녀는 어린 시절의 달달한 만남 때문에 카페 주인 홍대영(김성규)을 짝사랑하고 있는 것으로 밝혀졌다. 1화에서는 학교 선배인 김태이(HELLOVENUS 유영), 이연남(김민구)과 함께 온다. (대영이가 연남과 인연이 있는 줄도 모르고.)",
    "latitude": 37.56249,
    "longitude": 126.92278
  },
  {
    "media": "#좋맛탱: 좋은 맛에 취하다",
    "name": "공간비틀즈",
    "detail": "1화에서 소름 끼치는 선배 지수가 저녁 식사 후 충남에게 집까지 태워주려 하고, 연남이 대신 걸어주겠다고 제안하는 모습이 나온다. 2화에서 연남은 술에 취한 충남이 지수와 함께 떠났다는 사실을 알고 급히 식당을 나선다.",
    "latitude": 37.555019,
    "longitude": 126.92838
  },
  {
    "media": "#좋맛탱: 좋은 맛에 취하다",
    "name": "율곡로3길",
    "detail": "7회(전체 2회)에서 카페에서 애프터눈 티를 먹은 후 정서현(노을, 전 레인보우)과 홍대영(김성규)이 이 거리를 산책한다.",
    "latitude": 37.577811,
    "longitude": 126.98239
  },
  {
    "media": "1%의 어떤것",
    "name": "사천진해수욕장",
    "detail": "이재인(하식진)이 김다현(전소민)과 계약이 끝나기 전 마지막 데이트를 위해 데려온 곳이다.",
    "latitude": 37.842094,
    "longitude": 128.874568
  },
  {
    "media": "1%의 어떤것",
    "name": "보헤미안박이추커피",
    "detail": "14회에서 이재인(하석진)과 김다현(전소민)이 해변 데이트를 마치고 이곳에 왔다. 다음 날 각자의 길을 갈 때 어떻게 할 것인지 이야기하고(계약기간이 끝나기 때문에) 재인은 다현에게 목걸이를 선물한다.",
    "latitude": 37.846843,
    "longitude": 128.86688
  },
  {
    "media": "1%의 어떤것",
    "name": "인터컨티넨탈 알펜시아 평창 리조트",
    "detail": "이 호텔은 이재인(하식진)이 운영하는 성현그룹 소속 호텔이다.",
    "latitude": 37.658254,
    "longitude": 128.66975
  },
  {
    "media": "1%의 어떤것",
    "name": "라꼼마빌딩",
    "detail": "김다현(전소민)은 이 카페에서 지수(백승헌)를 만난다. 2회에서 그녀는 팬클럽 회장이다.",
    "latitude": 37.548951,
    "longitude": 126.92088
  },
  {
    "media": "17세의 조건",
    "name": "서울역",
    "detail": "안서연(박시은 분)과 고민재(윤찬영 분)는 1회에서 이 역에서 지하철을 타고 집으로 돌아온다.",
    "latitude": 37.554719,
    "longitude": 126.97065
  },
  {
    "media": "18 어게인",
    "name": "소토보체",
    "detail": "12회에서 한밤중 수영을 못하는 정다정(김하늘)이 한 곳에 걸려 넘어지고, 고우영(이도현), 예지훈(위하준)은 그녀를 구하기 위해 직접 물속으로 뛰어들었다.",
    "latitude": 37.74281,
    "longitude": 128.00877
  },
  {
    "media": "18 어게인",
    "name": "오페라 디바스",
    "detail": "1회에서 홍대영(윤상현)이 두 자녀 홍시아(노정의), 홍시우(려운)와 함께 이 식당에서 점심을 먹었다.",
    "latitude": 37.59965,
    "longitude": 126.81624
  },
  {
    "media": "18 어게인",
    "name": "서울대공원",
    "detail": "홍대영(윤상현)은 두 아이 홍시아(이남경)과 홍시우(오자훈)는 4회에서 어려서 인연을 맺지 못한다.",
    "latitude": 37.427542,
    "longitude": 127.01701
  },
  {
    "media": "18 어게인",
    "name": "모로미쿠시 광교카페거리점",
    "detail": "18회에서 절친 고덕진(김강현)과 이 이자카야에서 하트 투 하트 토크를 나눴다.",
    "latitude": 37.294673,
    "longitude": 127.05381
  },
  {
    "media": "18 어게인",
    "name": "파머스테이블",
    "detail": "18회에서 홍대영(윤상현)과 정다정(김하늘)은 두 자녀 홍시아(노정의), 홍시우(려운)와 함께 이곳에서 가족 회식을 가졌다.",
    "latitude": 37.7902235,
    "longitude": 126.695397
  },
  {
    "media": "18 어게인",
    "name": "화이트블럭",
    "detail": "최일권(이기우)은 5화에서 정다정(김하늘)과 만나 파티 친구들과의 내기에서 이기기 위한 작전을 세우고 홍대영(이도현)은 멀리서 이 광경을 지켜본다.",
    "latitude": 37.7889189,
    "longitude": 126.699592
  },
  {
    "media": "18 어게인",
    "name": "퍼스트가든",
    "detail": "12화에서 예지훈(위하준)을 모델로 한 고고플레이의 신작 '스파르타 - 전쟁의 왕' 게임은 이 정원에서 런칭된다.",
    "latitude": 37.7321551,
    "longitude": 126.793933
  },
  {
    "media": "18 어게인",
    "name": "엘빈에비뉴라운지",
    "detail": "12회에서 추애린(이미도)이 고덕진(김강현)을 불러 이 술집에 술을 들이키는 모습이 그려졌다.",
    "latitude": 37.4990249,
    "longitude": 127.02849
  },
  {
    "media": "18 어게인",
    "name": "태그호이어 청담점",
    "detail": "7, 9회에서 이 건물의 외관은 최일권(이기우)이 정기적으로 선생님과 학부모 간담회를 하는이 클럽의 하나로 등장한다.",
    "latitude": 37.5258,
    "longitude": 127.0402
  },
  {
    "media": "18 어게인",
    "name": "C156",
    "detail": "이 장소는 2회에서 정다정(김하늘)과 절친 추애린(이미도)이 술을 마시러 왔다가 그날 저녁 아르바이트생으로 오빠를 도와주는 일권과 마주치는 최일권(이기우)의 동생이 운영하는 레스토랑 바로 등장한다..",
    "latitude": 37.546081,
    "longitude": 127.06649
  },
  {
    "media": "18 어게인",
    "name": "벌스가든",
    "detail": "12회에서 정다정(김하늘)은 홍대영(윤상현)과 함께 입구 옆 쉼터를 찾았던 순간을 회상한다. 그리고 그는 우산과 꽃을 들고 돌아오기 위해 잠시 떠납니다.",
    "latitude": 37.565239,
    "longitude": 126.92054
  },
  {
    "media": "18 어게인",
    "name": "성미산로29길",
    "detail": "고우영(이도현)과 홍시우(려운)는 18회7화에서 정다정(김하늘)과 추애린(이미도)을 마주치고, 우영은 애린이 자신의 정체를 밝혀내는 것을 두려워한다.",
    "latitude": 37.564235,
    "longitude": 126.92285
  },
  {
    "media": "18 어게인",
    "name": "누리꿈스퀘어빌딩",
    "detail": "추애린(이미도)이 일하는 방송사로 등장한다.",
    "latitude": 37.579272,
    "longitude": 126.89028
  },
  {
    "media": "18 어게인",
    "name": "곤밥",
    "detail": "8회에서 예지훈(위하준)이 정다정(김하늘)을 저녁식사로 이 식당에 데려온다. 그리고 그들이 떠날 때 여사장님(박은영 카메오)과 지훈은 모두 다정에게 사인을 부탁한다.",
    "latitude": 37.54516,
    "longitude": 126.92256
  },
  {
    "media": "18 어게인",
    "name": "올드문래",
    "detail": "8회에서 정다정(김하늘)은 절친 추애린(이미도)을 이 식당에서 만났다.",
    "latitude": 37.5138911,
    "longitude": 126.8942605
  },
  {
    "media": "18 어게인",
    "name": "클럽메카",
    "detail": "5화에서 일권이 정다중(김하늘)을 유혹하겠다는 내기를 수락했다는 것이 밝혀지는 장면이 나온다. 7회에서 일권은 이 클럽에서 사모회를 열고 정다중(김하늘)과 고덕진(김강현)의 아들이 들어갈 수 있도록 돈을 갈취하려 한다.",
    "latitude": 37.531482,
    "longitude": 126.99078
  },
  {
    "media": "18 어게인",
    "name": "더리버",
    "detail": "15회에서 정다정(김하늘 분)과 예지훈(위하준 분)은 이 장소에서 만나 마음을 터놓고 이야기를 나눈다.",
    "latitude": 37.507108,
    "longitude": 126.98472
  },
  {
    "media": "18 어게인",
    "name": "이촌로29길",
    "detail": "8회에서 홍대영(윤상현)은 이 거리에서 아버지 홍주만(이병준)과의 결별의 순간을 회상한다. 그의 아버지가 철로를 건너는 동안 그는 뒤에 머물렀다.",
    "latitude": 37.525257,
    "longitude": 126.96103
  },
  {
    "media": "18 어게인",
    "name": "서울드래곤시티",
    "detail": "정다정(김하늘 분)과 고우영/홍대영(이도현 분)이 함께 점심을 먹은 후, 다시 12화 이 장소에서 그랜드 메르큐어 호텔의 문을 통해 식당을 빠져나온다.",
    "latitude": 37.531844,
    "longitude": 126.96306
  },
  {
    "media": "18 어게인",
    "name": "창신동 채석장 전망대",
    "detail": "14회에서 오해가 풀린 후 홍대영(이도현)은 정다정(김하늘)과 이 곳에서 키스를 나눈다.",
    "latitude": 37.578223,
    "longitude": 127.01164
  },
  {
    "media": "18 어게인",
    "name": "낙산공원",
    "detail": "1회에서 젊은 홍대영(이도현)과 정다정(한소은)이 젊은 부모가 되는 것이 무엇을 의미하는지 토론하는 곳으로 나온다.",
    "latitude": 37.580667,
    "longitude": 127.00746
  },
  {
    "media": "18 어게인",
    "name": "삼일빌라",
    "detail": "홍씨 가족은 이 아파트에 살고 있다.",
    "latitude": 37.594378,
    "longitude": 126.96757
  },
  {
    "media": "18 어게인",
    "name": "경희궁3길",
    "detail": "8회에서 홍대영(윤상현 분)은 아들 홍시우(려은 분)와 길을 건너던 이 거리에서 자신이 아이들과 얼마나 소원해졌는지 회상하며 특정 순간을 회상한다.",
    "latitude": 37.57329,
    "longitude": 126.96731
  },
  {
    "media": "18 어게인",
    "name": "청계천",
    "detail": "정다정(김하늘)과 청소년 홍대영(이도현)은 15회에서 밤에 이 다리와 다리 사이를 건너며 데이트한다.",
    "latitude": 37.569205,
    "longitude": 126.97791
  },
  {
    "media": "18 어게인",
    "name": "시우식당",
    "detail": "8회에서 술을 마시러 식당에 찾아와 홍대가 희생한 모든 것을 생각하며 눈물을 흘린다.",
    "latitude": 37.577713,
    "longitude": 126.96952
  },
  {
    "media": "18 어게인",
    "name": "파로그랜드",
    "detail": "12회에서 정다정(김하늘)은 이 식당에 점심식사를 초대받았다.",
    "latitude": 37.567435,
    "longitude": 126.98516
  },
  {
    "media": "18 어게인",
    "name": "송도센트럴파크호텔",
    "detail": "8회에서 추애린(이미도)의 전 남자친구(허정민)가 그녀를 이 호텔로 데려와 이야기를 나눈다.",
    "latitude": 37.3904903,
    "longitude": 126.637203
  },
  {
    "media": "1987",
    "name": "임진각",
    "detail": "영화 1987 초반부 김윤석이 차례를 지내는 곳",
    "latitude": 37.889542,
    "longitude": 126.740176
  },
  {
    "media": "1987",
    "name": "문화공감수정",
    "detail": "영화 1987에 나온 부산역 카페",
    "latitude": 35.125713,
    "longitude": 129.042622
  },
  {
    "media": "1987",
    "name": "연세대학교 신촌캠퍼스",
    "detail": "영화 1987에서 김태리가 다닌 대학교",
    "latitude": 37.5637563,
    "longitude": 126.937546
  },
  {
    "media": "1987",
    "name": "민주인권기념관",
    "detail": "1987 촬영지이자 박종철이 고문으로 사망한 곳",
    "latitude": 37.541025,
    "longitude": 126.971672
  },
  {
    "media": "1987",
    "name": "천주교 서울대교구 주교좌명동대성당",
    "detail": "1987에서 김승훈 신부가 성명서를 발표한 곳",
    "latitude": 37.5632772,
    "longitude": 126.986827
  },
  {
    "media": "1987",
    "name": "서울특별시청",
    "detail": "영화 1987 마지막 장면의 배경이 된 장소",
    "latitude": 37.566291,
    "longitude": 126.977931
  },
  {
    "media": "1987",
    "name": "연희네 슈퍼",
    "detail": "영화 1987에서 연희네 슈퍼로 나온 가게",
    "latitude": 34.78168,
    "longitude": 126.377325
  },
  {
    "media": "1987",
    "name": "청남대",
    "detail": "1987에서 문성근과 김윤석이 만나는 곳",
    "latitude": 36.46255,
    "longitude": 127.4906
  },
  {
    "media": "1박2일 시즌1",
    "name": "옛날초당순두부",
    "detail": "글로벌특집 2탄을 촬영한 순두부 맛집",
    "latitude": 37.786707,
    "longitude": 128.892774
  },
  {
    "media": "1박2일 시즌1",
    "name": "단천식당",
    "detail": "1박2일 멤버들이 방문한 순대 맛집",
    "latitude": 38.202626,
    "longitude": 128.593672
  },
  {
    "media": "1박2일 시즌1",
    "name": "별마로천문대",
    "detail": "올빼미 여행 특집을 촬영한 천문대",
    "latitude": 37.198816,
    "longitude": 128.486792
  },
  {
    "media": "1박2일 시즌1",
    "name": "장금성",
    "detail": "성탄특집을 촬영한 짬뽕 맛집",
    "latitude": 37.274739,
    "longitude": 128.014985
  },
  {
    "media": "1박2일 시즌1",
    "name": "숲속의빈터 방동막국수",
    "detail": "1박2일 멤버들이 방문한 막국수 맛집",
    "latitude": 37.952463,
    "longitude": 128.358508
  },
  {
    "media": "1박2일 시즌1",
    "name": "정선레일바이크",
    "detail": "전국일주 특집을 촬영한 장소",
    "latitude": 37.51688,
    "longitude": 128.727662
  },
  {
    "media": "1박2일 시즌1",
    "name": "덕산기계곡",
    "detail": "정선을 가다 편을 촬영한 계곡",
    "latitude": 37.373367,
    "longitude": 128.711835
  },
  {
    "media": "1박2일 시즌1",
    "name": "가리산자연휴양림",
    "detail": "배달레이스를 촬영한 휴양림",
    "latitude": 37.866729,
    "longitude": 127.982506
  },
  {
    "media": "1박2일 시즌1",
    "name": "신륵사 국민관광지",
    "detail": "1박 2일 은지원이 108배 한 여주 신륵사",
    "latitude": 37.29756,
    "longitude": 127.66147
  },
  {
    "media": "1박2일 시즌1",
    "name": "헤이리 예술마을",
    "detail": "1박2일 윷놀이 미션을 한 파주 헤이리 예술마을",
    "latitude": 37.788146,
    "longitude": 126.698883
  },
  {
    "media": "1박2일 시즌1",
    "name": "구조라 해수욕장",
    "detail": "1박2일에서 방문한 거제 8경 구조라해수욕장",
    "latitude": 34.808882,
    "longitude": 128.690551
  },
  {
    "media": "1박2일 시즌1",
    "name": "현대찜닭",
    "detail": "경북 안동 특집 중 방문한 찜닭 맛집",
    "latitude": 36.56541,
    "longitude": 128.727802
  },
  {
    "media": "1박2일 시즌1",
    "name": "박달식당",
    "detail": "1박2일 멤버들이 방문한 순대국밥집",
    "latitude": 36.607731,
    "longitude": 128.273585
  },
  {
    "media": "1박2일 시즌1",
    "name": "낙영찜갈비 본점",
    "detail": "강호동과 양준혁이 방문한 찜갈비 맛집",
    "latitude": 35.8712706,
    "longitude": 128.6049424
  },
  {
    "media": "1박2일 시즌1",
    "name": "부산사직종합운동장사직야구장",
    "detail": "1박2일 은지원과 이승기가 방문한 사직야구장",
    "latitude": 35.193917,
    "longitude": 129.061529
  },
  {
    "media": "1박2일 시즌1",
    "name": "부산 자갈치 시장",
    "detail": "얼음 배달을 하며 일손을 도운 자갈치 시장",
    "latitude": 35.096659,
    "longitude": 129.030502
  },
  {
    "media": "1박2일 시즌1",
    "name": "해운대 해수욕장",
    "detail": "부산 특집을 촬영한 해수욕장",
    "latitude": 35.158647,
    "longitude": 129.160365
  },
  {
    "media": "1박2일 시즌1",
    "name": "을왕리해수욕장",
    "detail": "1박2일에서 방문한 을왕리 해수욕장",
    "latitude": 37.447737,
    "longitude": 126.372515
  },
  {
    "media": "1박2일 시즌1",
    "name": "메타세쿼이아 가로수길",
    "detail": "1박2일 오프닝 장소였던 메타세쿼이아 길",
    "latitude": 35.3251724,
    "longitude": 127.009247
  },
  {
    "media": "1박2일 시즌1",
    "name": "순천만습지",
    "detail": "전국일주 특집을 촬영한 자연생태공원",
    "latitude": 34.88597,
    "longitude": 127.509028
  },
  {
    "media": "1박2일 시즌1",
    "name": "청하식당",
    "detail": "영암편을 촬영한 낙지 맛집",
    "latitude": 34.725038,
    "longitude": 126.567914
  },
  {
    "media": "1박2일 시즌1",
    "name": "마라도해녀촌짜장",
    "detail": "제주도를 가다 편을 촬영한 짜장면 맛집",
    "latitude": 33.119912,
    "longitude": 126.267075
  },
  {
    "media": "1박2일 시즌1",
    "name": "토끼와거북이",
    "detail": "가파도여행 2편을 촬영한 한식당",
    "latitude": 33.518829,
    "longitude": 126.492183
  },
  {
    "media": "1박2일 시즌1",
    "name": "감초식당",
    "detail": "5대섬 특집편에서 방문한 순대 맛집",
    "latitude": 33.503296,
    "longitude": 126.52777
  },
  {
    "media": "1박2일 시즌1",
    "name": "협재해수욕장",
    "detail": "이승기가 오토바이를 타고 방문한 협재해수욕장",
    "latitude": 33.394065,
    "longitude": 126.239527
  },
  {
    "media": "1박2일 시즌1",
    "name": "공산성",
    "detail": "박찬호의 야간 훈련 장소였던 공산성",
    "latitude": 36.465013,
    "longitude": 127.12361
  },
  {
    "media": "1박2일 시즌4",
    "name": "미인폭포",
    "detail": "딘딘, 라비, 연정훈이 추가촬영미션을 하러 간 곳",
    "latitude": 37.182597,
    "longitude": 129.049232
  },
  {
    "media": "1박2일 시즌4",
    "name": "곰배령 (점봉산)",
    "detail": "수제 지팡이를 대여해 주는 곳",
    "latitude": 38.029391,
    "longitude": 128.432586
  },
  {
    "media": "1박2일 시즌4",
    "name": "오개장계곡",
    "detail": "김종민, 유세윤이 입수 벌칙 했던 장소",
    "latitude": 37.951966,
    "longitude": 128.062699
  },
  {
    "media": "1박2일 시즌4",
    "name": "재인폭포",
    "detail": "1박2일 시즌4 러블리즈 미주가 출연했던 점심 복불복 장소",
    "latitude": 38.076823,
    "longitude": 127.14318
  },
  {
    "media": "1박2일 시즌4",
    "name": "고산정",
    "detail": "1박2일 시즌 4 8회차 촬영지",
    "latitude": 36.767715,
    "longitude": 128.892121
  },
  {
    "media": "1박2일 시즌4",
    "name": "도산서원",
    "detail": "1박2일 시즌 4 7회 경북 안동 출현 장소",
    "latitude": 36.727008,
    "longitude": 128.843597
  },
  {
    "media": "1박2일 시즌4",
    "name": "이육사문학관",
    "detail": "1박2일 시즌 4 7회차 이육사 시인 명소",
    "latitude": 36.738987,
    "longitude": 128.862998
  },
  {
    "media": "1박2일 시즌4",
    "name": "노송정",
    "detail": "1박2일 시즌 4 8회차 베이스캠프",
    "latitude": 36.749782,
    "longitude": 128.828485
  },
  {
    "media": "1박2일 시즌4",
    "name": "월영교",
    "detail": "1박2일 시즌 4 7회차 오프닝 촬영지",
    "latitude": 36.576676,
    "longitude": 128.760825
  },
  {
    "media": "1박2일 시즌4",
    "name": "대한다원보성녹차밭",
    "detail": "1박 2일 스트레스제로 특집의 촬영지",
    "latitude": 34.714824,
    "longitude": 127.080926
  },
  {
    "media": "1박2일 시즌4",
    "name": "소안도",
    "detail": "1박2일 시즌 4 11회차 보물찾기 레이스",
    "latitude": 34.148122,
    "longitude": 126.652089
  },
  {
    "media": "1박2일 시즌4",
    "name": "미라리 해수욕장",
    "detail": "1박2일 시즌 4 12회차 소안도 기상 미션지",
    "latitude": 34.144803,
    "longitude": 126.669746
  },
  {
    "media": "1박2일 시즌4",
    "name": "물치기미전망대",
    "detail": "1박2일 시즌 4 12회차 소안도 촬영지",
    "latitude": 34.148834,
    "longitude": 126.634468
  },
  {
    "media": "1박2일 시즌4",
    "name": "항일운동기념관",
    "detail": "1박2일 시즌 4 11회차 소안도 레이스 촬영지",
    "latitude": 126.652883,
    "longitude": 126.652883
  },
  {
    "media": "1박2일 시즌4",
    "name": "명사십리 해수욕장",
    "detail": "1박2일 시즌 4 11회차 땅 복불복 달리기",
    "latitude": 34.327079,
    "longitude": 126.80895
  },
  {
    "media": "1박2일 시즌4",
    "name": "완도타워",
    "detail": "1박2일 시즌 4 11회차 집라인 미션 장소",
    "latitude": 34.310761,
    "longitude": 126.766606
  },
  {
    "media": "1박2일 시즌4",
    "name": "청해포구촬영장",
    "detail": "1박2일 시즌 4 11회차 역사 인물 퀴즈 미션지",
    "latitude": 34.3233625,
    "longitude": 126.66968
  },
  {
    "media": "1박2일 시즌4",
    "name": "황가네해물짬뽕",
    "detail": "1박2일 시즌 4 11회차 점심 식사 게임",
    "latitude": 34.317521,
    "longitude": 126.750802
  },
  {
    "media": "1박2일 시즌4",
    "name": "고창읍성",
    "detail": "1박2일 시즌 4 10회 전북 고창 편 출현 장소",
    "latitude": 35.430899,
    "longitude": 126.704806
  },
  {
    "media": "1박2일 시즌4",
    "name": "하늘마을민박",
    "detail": "1박2일 시즌 4 10회 고창 편 베이스캠프",
    "latitude": 35.523237,
    "longitude": 126.636018
  },
  {
    "media": "1박2일 시즌4",
    "name": "책마을해리(친친북스)",
    "detail": "1박2일 시즌 4 10회차 벌칙 장소",
    "latitude": 35.470063,
    "longitude": 126.483372
  },
  {
    "media": "1박2일 시즌4",
    "name": "쌍화차거리",
    "detail": "1박2일 시즌 4 9회차 쌍쌍 특집 오프닝 장소",
    "latitude": 35.567051,
    "longitude": 126.857119
  },
  {
    "media": "1박2일 시즌4",
    "name": "삼봉해수욕장",
    "detail": "1박2일 시즌 4 단체사진 찍은곳",
    "latitude": 36.570028,
    "longitude": 126.315392
  },
  {
    "media": "1박2일 시즌4",
    "name": "안면도 소나무해변길 (태안해안국립공원)",
    "detail": "1박2일 시즌 4에서 5회 차에 나온 산책 장소",
    "latitude": 36.571024,
    "longitude": 126.315932
  },
  {
    "media": "1박2일 시즌4",
    "name": "충주호유람선",
    "detail": "1박2일 시즌 2 담양편에 구담봉을 관람했던 곳",
    "latitude": 36.931629,
    "longitude": 128.253858
  },
  {
    "media": "1박2일 시즌4",
    "name": "구담봉",
    "detail": "1박2일 시즌 4 1회 단양군의 관광 명소",
    "latitude": 36.941732,
    "longitude": 128.247834
  },
  {
    "media": "20세기 소년소녀",
    "name": "더백푸드트럭",
    "detail": "드라마의 포스터 촬영이 있던 장소다.",
    "latitude": 37.547512,
    "longitude": 126.98404
  },
  {
    "media": "20세기 소년소녀",
    "name": "회현시민아파트",
    "detail": "20세기 소녀의 포스터 촬영은 이 아파트 단지 앞에서 찍혔다.",
    "latitude": 37.555689,
    "longitude": 126.98121
  },
  {
    "media": "20세기 소년소녀",
    "name": "인천국제공항",
    "detail": "1화에서 사진진(한예슬)이 이곳을 떠나 상하이로 떠난다.",
    "latitude": 37.44919,
    "longitude": 126.4514
  },
  {
    "media": "2AM",
    "name": "휘닉스 평창 스노우 파크",
    "detail": "우리 결혼했어요 조권, 가인의 데이트 장소",
    "latitude": 37.577868,
    "longitude": 128.32341
  },
  {
    "media": "2AM",
    "name": "원마운트",
    "detail": "우리 결혼했어요 진운, 고준희의 데이트 장소",
    "latitude": 37.664347,
    "longitude": 126.754379
  },
  {
    "media": "2AM",
    "name": "율동공원",
    "detail": "우리 결혼했어요 조권, 가인의 데이트 장소",
    "latitude": 37.3765384,
    "longitude": 127.152391
  },
  {
    "media": "2AM",
    "name": "베르아델승마클럽",
    "detail": "우리 결혼했어요 진운, 고준희의 데이트 코스",
    "latitude": 37.212744,
    "longitude": 126.608469
  },
  {
    "media": "2AM",
    "name": "서원아트리움",
    "detail": "진운이 아이스버킷챌린지를 한 장소",
    "latitude": 37.815938,
    "longitude": 126.896078
  },
  {
    "media": "2AM",
    "name": "서울특별시 학생체육관",
    "detail": "레인보우 스타즈' 진운이 경기한 체육관",
    "latitude": 37.512199,
    "longitude": 127.07525
  },
  {
    "media": "2AM",
    "name": "그랜드하얏트서울 아이스링크",
    "detail": "우리 결혼했어요 조권, 가인의 데이트 장소",
    "latitude": 37.539349,
    "longitude": 126.99715
  },
  {
    "media": "2PM",
    "name": "경기도잣향기푸른숲",
    "detail": "찬성이 김비서가 왜 그럴까를 촬영한 곳",
    "latitude": 37.769366,
    "longitude": 127.339123
  },
  {
    "media": "2PM",
    "name": "쁘띠프랑스",
    "detail": "택연, 닉쿤이 런닝맨을 촬영한 곳",
    "latitude": 37.714908,
    "longitude": 127.490287
  },
  {
    "media": "2PM",
    "name": "닭이봉춘천닭갈비 의정부점",
    "detail": "택연의 싸인이 있는 닭갈비집",
    "latitude": 37.733528,
    "longitude": 127.043793
  },
  {
    "media": "2PM",
    "name": "한마음행복센터",
    "detail": "준호가 그냥 사랑하는 사이를 촬영한 복지회관",
    "latitude": 35.097029,
    "longitude": 129.016722
  },
  {
    "media": "2PM",
    "name": "아실라",
    "detail": "닉쿤이 방문한 프라이빗 와인바",
    "latitude": 37.500688,
    "longitude": 127.028069
  },
  {
    "media": "2PM",
    "name": "마치래빗 샐러드 신사동가로수길본점",
    "detail": "준케이의 싸인 플레이트가 있는 샐러드샵",
    "latitude": 37.520293,
    "longitude": 127.024517
  },
  {
    "media": "2PM",
    "name": "도쿄등심 압구정점",
    "detail": "멤버들이 함께 방문한 소고기 전문점",
    "latitude": 37.523312,
    "longitude": 127.037113
  },
  {
    "media": "2PM",
    "name": "팔당닭발",
    "detail": "택연이 인간의 조건에서 방문한 닭발집",
    "latitude": 37.51672,
    "longitude": 127.0378039
  },
  {
    "media": "2PM",
    "name": "히메시야",
    "detail": "닉쿤의 싸인이 있는 홍대 일식당",
    "latitude": 37.548639,
    "longitude": 126.921276
  },
  {
    "media": "2PM",
    "name": "김사또상수본점",
    "detail": "준케이의 싸인이 있는 떡볶이집",
    "latitude": 37.547983,
    "longitude": 126.922831
  },
  {
    "media": "2PM",
    "name": "도쿄등심 롯데캐슬잠실점",
    "detail": "닉쿤의 싸인 플레이트가 있는 소고기 전문점",
    "latitude": 37.5142852,
    "longitude": 127.100694
  },
  {
    "media": "2PM",
    "name": "카페후암동",
    "detail": "택연이 방문한 후암동 커피 맛집",
    "latitude": 37.548701,
    "longitude": 126.97755
  },
  {
    "media": "2PM",
    "name": "감고당길",
    "detail": "택연이 인터랙티브 무비 안녕을 촬영한 곳",
    "latitude": 37.577861,
    "longitude": 126.982358
  },
  {
    "media": "2PM",
    "name": "호박식당 약수본점",
    "detail": "멤버들이 함께 방문한 소갈비 맛집",
    "latitude": 37.557271,
    "longitude": 127.01231
  },
  {
    "media": "2PM",
    "name": "카페 누구나꽃",
    "detail": "준호가 휴가중 방문한 카페",
    "latitude": 37.651568,
    "longitude": 126.517667
  },
  {
    "media": "2PM",
    "name": "대흘리에",
    "detail": "택연이 방문한 제주 풀빌라 펜션",
    "latitude": 33.511016,
    "longitude": 126.68306
  },
  {
    "media": "2TV생생정보",
    "name": "고토히라우동",
    "detail": "2TV생생정보 6회 우동",
    "latitude": 37.5550433,
    "longitude": 126.9291813
  },
  {
    "media": "2TV생생정보",
    "name": "모자호떡",
    "detail": "2TV생생정보 986회 호떡",
    "latitude": 37.754234,
    "longitude": 128.898988
  },
  {
    "media": "2TV생생정보",
    "name": "영진항",
    "detail": "2TV생생정보 1595회 대왕해물철판 맛집",
    "latitude": 37.8859158,
    "longitude": 128.8289368
  },
  {
    "media": "2TV생생정보",
    "name": "고선생 화덕생선구이",
    "detail": "2TV생생정보 1553회 화덕생선구이, 통갈치조림 맛집",
    "latitude": 37.751853,
    "longitude": 128.8760574
  },
  {
    "media": "2TV생생정보",
    "name": "물꼬기",
    "detail": "2TV생생정보 1588회 생선구이정식 맛집",
    "latitude": 37.4385457,
    "longitude": 129.1873093
  },
  {
    "media": "2TV생생정보",
    "name": "왕가수라청",
    "detail": "2TV생생정보 1647회 황태구이정식 맛집",
    "latitude": 38.2019841,
    "longitude": 128.5349434
  },
  {
    "media": "2TV생생정보",
    "name": "아바이오징어빵",
    "detail": "2TV생생정보 1584회 삼색오징어빵 맛집",
    "latitude": 38.2049698,
    "longitude": 128.5895216
  },
  {
    "media": "2TV생생정보",
    "name": "범바우막국수 양양본점",
    "detail": "2TV생생정보 1598회 꾸지뽕막국수 맛집",
    "latitude": 38.1328882,
    "longitude": 128.6188784
  },
  {
    "media": "2TV생생정보",
    "name": "수라상",
    "detail": "2TV생생정보 1589회 통섭전골, 오징어순대 맛집",
    "latitude": 38.0791899,
    "longitude": 128.6721997
  },
  {
    "media": "2TV생생정보",
    "name": "비치얼스",
    "detail": "2TV생생정보 1628회 피자 맛집",
    "latitude": 38.0223162,
    "longitude": 128.7229179
  },
  {
    "media": "2TV생생정보",
    "name": "다하누한우프라자",
    "detail": "2TV생생정보 1663회 한우 맛집",
    "latitude": 37.2787744,
    "longitude": 128.2573146
  },
  {
    "media": "2TV생생정보",
    "name": "산촌두부마을",
    "detail": "2TV생생정보 1575회 두부갈비 맛집",
    "latitude": 38.1251715,
    "longitude": 128.2113407
  },
  {
    "media": "2TV생생정보",
    "name": "인제막국수",
    "detail": "2TV생생정보 1619회 메밀옹심이칼국수, 비빔막국수, 감자전 맛집",
    "latitude": 38.0639603,
    "longitude": 128.1719582
  },
  {
    "media": "2TV생생정보",
    "name": "임꺽정가든",
    "detail": "2TV생생정보 1660회 민물매운탕 맛집",
    "latitude": 38.1865639,
    "longitude": 127.2874501
  },
  {
    "media": "2TV생생정보",
    "name": "연사랑",
    "detail": "2TV생생정보 1592회 돌미나리밥상 맛집",
    "latitude": 38.2178956,
    "longitude": 127.2085751
  },
  {
    "media": "2TV생생정보",
    "name": "해누리",
    "detail": "2TV생생정보 1555회 통문어해물찜, 산더미해물탕 맛집",
    "latitude": 37.8692607,
    "longitude": 127.7280439
  },
  {
    "media": "2TV생생정보",
    "name": "명가춘천막국수",
    "detail": "2TV생생정보 1544회 메밀막국수 맛집",
    "latitude": 37.89222,
    "longitude": 127.72382
  },
  {
    "media": "2TV생생정보",
    "name": "우성닭갈비 본점",
    "detail": "2TV생생정보 1260회 철판닭갈비",
    "latitude": 37.887309,
    "longitude": 127.763261
  },
  {
    "media": "2TV생생정보",
    "name": "참나무숯불닭갈비",
    "detail": "2TV생생정보 1649회 맥반석닭갈비 맛집",
    "latitude": 37.9305019,
    "longitude": 127.788979
  },
  {
    "media": "2TV생생정보",
    "name": "카페건널목",
    "detail": "2TV생생정보 1604회 연탄빵, 연탄라테 맛집",
    "latitude": 37.1593868,
    "longitude": 128.9887525
  },
  {
    "media": "2TV생생정보",
    "name": "승소 닭갈비",
    "detail": "2TV생생정보 1604회 물닭갈비 맛집",
    "latitude": 37.1717831,
    "longitude": 128.9910498
  },
  {
    "media": "2TV생생정보",
    "name": "황태회관",
    "detail": "2TV생생정보 1663회 오삼불고기 맛집",
    "latitude": 37.6698745,
    "longitude": 128.7098617
  },
  {
    "media": "2TV생생정보",
    "name": "밥먹을시간",
    "detail": "2TV생생정보 1606회 더덕오삼불고기 맛집",
    "latitude": 37.6726963,
    "longitude": 128.708263
  },
  {
    "media": "2TV생생정보",
    "name": "느티나무 돌솥곤드레밥",
    "detail": "2TV생생정보 1654회 돌솥곤드레밥, 감자옹심이 맛집",
    "latitude": 37.6937337,
    "longitude": 127.9552314
  },
  {
    "media": "2TV생생정보",
    "name": "무궁화화로숯불구이",
    "detail": "2TV생생정보 1665회 고추장삼겹살, 막국수 맛집",
    "latitude": 37.6589297,
    "longitude": 127.8298349
  },
  {
    "media": "2TV생생정보",
    "name": "식당별하 버섯요리전문점",
    "detail": "2TV생생정보 1659회 버섯전골 맛집",
    "latitude": 37.7403398,
    "longitude": 127.9412654
  },
  {
    "media": "2TV생생정보",
    "name": "북한강횟집",
    "detail": "2TV생생정보 1580회 산천어요리 맛집",
    "latitude": 38.1042779,
    "longitude": 127.7051239
  },
  {
    "media": "2TV생생정보",
    "name": "화천손만두",
    "detail": "2TV생생정보 1580회 고추장떡 맛집",
    "latitude": 38.104047,
    "longitude": 127.7053974
  },
  {
    "media": "2TV생생정보",
    "name": "반길이국밥",
    "detail": "2TV생생정보 1618회 한우국밥, 잣수육무침 맛집",
    "latitude": 37.8049606,
    "longitude": 127.3570731
  },
  {
    "media": "2TV생생정보",
    "name": "축령가든",
    "detail": "2TV생생정보 1665회 한정식 맛집",
    "latitude": 37.7659297,
    "longitude": 127.3620947
  },
  {
    "media": "2TV생생정보",
    "name": "산골농원",
    "detail": "2TV생생정보 1561회 솥뚜껑닭볶음탕 맛집",
    "latitude": 37.596235,
    "longitude": 127.50975
  },
  {
    "media": "2TV생생정보",
    "name": "도원가든",
    "detail": "2TV생생정보 1602회 솥뚜껑닭볶음탕 맛집",
    "latitude": 37.7762457,
    "longitude": 127.4376733
  },
  {
    "media": "2TV생생정보",
    "name": "라떼떼라",
    "detail": "2TV생생정보 1596회 수박실타래빙수 맛집",
    "latitude": 37.6547726,
    "longitude": 126.8453248
  },
  {
    "media": "2TV생생정보",
    "name": "가나안국수",
    "detail": "2TV생생정보 1568회 초계국수, 비빔국수 맛집",
    "latitude": 37.6008133,
    "longitude": 126.8278577
  },
  {
    "media": "2TV생생정보",
    "name": "한소반쭈꾸미 일산점",
    "detail": "2TV생생정보 1582회 쭈꾸미세트 맛집",
    "latitude": 37.6726711,
    "longitude": 126.7918003
  },
  {
    "media": "2TV생생정보",
    "name": "신라면옥 본점",
    "detail": "2TV생생정보 1593회 소고기수육전골, 명태회냉면 맛집",
    "latitude": 37.6864681,
    "longitude": 126.778502
  },
  {
    "media": "2TV생생정보",
    "name": "장세 무한리필 일산본점",
    "detail": "2TV생생정보 1600회 고기무한리필 맛집",
    "latitude": 37.6789746,
    "longitude": 126.7540511
  },
  {
    "media": "2TV생생정보",
    "name": "골목집소머리국밥",
    "detail": "2TV생생정보 1621회 소머리국밥 맛집",
    "latitude": 37.3502987,
    "longitude": 127.3399225
  },
  {
    "media": "2TV생생정보",
    "name": "애마오리",
    "detail": "2TV생생정보 713회 오리백숙",
    "latitude": 37.475496,
    "longitude": 127.220754
  },
  {
    "media": "2TV생생정보",
    "name": "해신생생해물탕",
    "detail": "2TV생생정보 1633회 산더미해물탕 맛집",
    "latitude": 37.3698617,
    "longitude": 127.3039929
  },
  {
    "media": "2TV생생정보",
    "name": "신흥정육식당",
    "detail": "2TV생생정보 1648회 갈비탕, 소고기국밥 맛집",
    "latitude": 37.6342473,
    "longitude": 126.7370613
  },
  {
    "media": "2TV생생정보",
    "name": "동동국수집",
    "detail": "2TV생생정보 98회 육개장칼국수/육전",
    "latitude": 37.55712,
    "longitude": 127.236591
  },
  {
    "media": "2TV생생정보",
    "name": "역전집",
    "detail": "2TV생생정보 1558회 감자전, 비빔국수 맛집",
    "latitude": 37.5232073,
    "longitude": 127.2965308
  },
  {
    "media": "2TV생생정보",
    "name": "운길산마루",
    "detail": "2TV생생정보 1558회 숯불장어, 돼지갈비 맛집",
    "latitude": 37.5574745,
    "longitude": 127.3088741
  },
  {
    "media": "2TV생생정보",
    "name": "가호전골",
    "detail": "2TV생생정보 1267회 통문어소뼈전골",
    "latitude": 37.8930648,
    "longitude": 127.0532161
  },
  {
    "media": "2TV생생정보",
    "name": "장원물갈비",
    "detail": "2TV생생정보 1573회 산더미왕갈비전골 맛집",
    "latitude": 37.4889215,
    "longitude": 126.7831657
  },
  {
    "media": "2TV생생정보",
    "name": "제주사랑 본점",
    "detail": "2TV생생정보 1628회 생갈치조림 맛집",
    "latitude": 37.4963708,
    "longitude": 126.7785022
  },
  {
    "media": "2TV생생정보",
    "name": "시골집",
    "detail": "2TV생생정보 1590회 추어매운탕 맛집",
    "latitude": 37.4745192,
    "longitude": 126.8244471
  },
  {
    "media": "2TV생생정보",
    "name": "판교 장어사랑",
    "detail": "2TV생생정보 1559회 한방장어구이, 전복장어탕 맛집",
    "latitude": 37.4215243,
    "longitude": 127.1056019
  },
  {
    "media": "2TV생생정보",
    "name": "유정집",
    "detail": "2TV생생정보 1580회 누룽지닭백숙 맛집",
    "latitude": 37.4616742,
    "longitude": 127.1559866
  },
  {
    "media": "2TV생생정보",
    "name": "짜마",
    "detail": "2TV생생정보 1547회 항아리짬뽕, 돌판짜장 맛집",
    "latitude": 37.2647358,
    "longitude": 127.0272038
  },
  {
    "media": "2TV생생정보",
    "name": "남문통닭 본점",
    "detail": "2TV생생정보 1550회 갈비맛통닭, 고추장맛통닭 맛집",
    "latitude": 37.2795537,
    "longitude": 127.0174974
  },
  {
    "media": "2TV생생정보",
    "name": "카페애테",
    "detail": "2TV생생정보 1596회 산더미빙수 맛집",
    "latitude": 37.2768373,
    "longitude": 127.0158634
  },
  {
    "media": "2TV생생정보",
    "name": "해물천지",
    "detail": "2TV생생정보 1567회 통문어해물전골, 육해공보양탕 맛집",
    "latitude": 37.2801708,
    "longitude": 127.0138556
  },
  {
    "media": "2TV생생정보",
    "name": "참소예",
    "detail": "2TV생생정보 1639회 주꾸미볶음한상차림 맛집",
    "latitude": 37.3839333,
    "longitude": 126.8282288
  },
  {
    "media": "2TV생생정보",
    "name": "이가네생칼국수",
    "detail": "2TV생생정보 1660회 닭한마리칼국수 맛집",
    "latitude": 37.4394471,
    "longitude": 126.7848883
  },
  {
    "media": "2TV생생정보",
    "name": "마라명장",
    "detail": "2TV생생정보 1657회 화끈마라짬뽕 맛집",
    "latitude": 37.3176428,
    "longitude": 126.8385728
  },
  {
    "media": "2TV생생정보",
    "name": "별난곱창",
    "detail": "2TV생생정보 1570회 한우모둠구이한판 맛집",
    "latitude": 37.3175963,
    "longitude": 126.8395324
  },
  {
    "media": "2TV생생정보",
    "name": "먹골농장",
    "detail": "2TV생생정보 1604회 오리구이 맛집",
    "latitude": 37.8377682,
    "longitude": 126.9633783
  },
  {
    "media": "2TV생생정보",
    "name": "두물머리연핫도그",
    "detail": "2TV생생정보 1586회 연잎핫도그 맛집",
    "latitude": 37.5347263,
    "longitude": 127.3167477
  },
  {
    "media": "2TV생생정보",
    "name": "양수리한옥집",
    "detail": "2TV생생정보 1638회 아구찜 맛집",
    "latitude": 37.5453159,
    "longitude": 127.32106
  },
  {
    "media": "2TV생생정보",
    "name": "장터집",
    "detail": "2TV생생정보 1581회 양평해장국 맛집",
    "latitude": 37.4899998,
    "longitude": 127.4932792
  },
  {
    "media": "2TV생생정보",
    "name": "솔잎칼국수",
    "detail": "2TV생생정보 1586회 솔잎칼국수, 솔잎콩국수 맛집",
    "latitude": 37.4862676,
    "longitude": 127.5956669
  },
  {
    "media": "2TV생생정보",
    "name": "청산녹수",
    "detail": "2TV생생정보 1599회 초계탕 맛집",
    "latitude": 37.9874336,
    "longitude": 127.094361
  },
  {
    "media": "2TV생생정보",
    "name": "메밀래",
    "detail": "2TV생생정보 1603회 홍두깨막국수 맛집",
    "latitude": 37.2815666,
    "longitude": 127.1044382
  },
  {
    "media": "2TV생생정보",
    "name": "즐삼프리미엄생고기",
    "detail": "2TV생생정보 1552회 고기무한리필 맛집",
    "latitude": 37.2338305,
    "longitude": 127.18807
  },
  {
    "media": "2TV생생정보",
    "name": "우리수산",
    "detail": "2TV생생정보 1572회 양푼물회 맛집",
    "latitude": 37.2404914,
    "longitude": 127.1720606
  },
  {
    "media": "2TV생생정보",
    "name": "명가 코다리찜",
    "detail": "2TV생생정보 1667회 문어시래기코다리찜 맛집",
    "latitude": 37.2773299,
    "longitude": 127.2324971
  },
  {
    "media": "2TV생생정보",
    "name": "만화간장게장",
    "detail": "2TV생생정보 1665회 간장게장, 꽃게탕 맛집",
    "latitude": 37.7337207,
    "longitude": 127.1050741
  },
  {
    "media": "2TV생생정보",
    "name": "조경제만두쟁이",
    "detail": "2TV생생정보 1607회 냉칼국수, 삼색수제만두전골 맛집",
    "latitude": 37.751261,
    "longitude": 127.0693546
  },
  {
    "media": "2TV생생정보",
    "name": "성원통닭",
    "detail": "2TV생생정보 1639회 통닭 맛집",
    "latitude": 37.7405061,
    "longitude": 127.0514046
  },
  {
    "media": "2TV생생정보",
    "name": "강민주의들밥 본점",
    "detail": "2TV생생정보 1575회 보리굴비한상, 간장게장 맛집",
    "latitude": 37.2214185,
    "longitude": 127.3679451
  },
  {
    "media": "2TV생생정보",
    "name": "오동추야",
    "detail": "2TV생생정보 1562회 숯불돼지갈비 맛집",
    "latitude": 37.2902331,
    "longitude": 127.4521568
  },
  {
    "media": "2TV생생정보",
    "name": "약선마을",
    "detail": "2TV생생정보 1587회 바닷가재해신탕 맛집",
    "latitude": 37.8056725,
    "longitude": 126.8838473
  },
  {
    "media": "2TV생생정보",
    "name": "파주코다리",
    "detail": "2TV생생정보 1596회 코다리조림 맛집",
    "latitude": 37.7068203,
    "longitude": 126.7322726
  },
  {
    "media": "2TV생생정보",
    "name": "한끼두끼",
    "detail": "2TV생생정보 1644회 낙곱새전골 맛집",
    "latitude": 37.7275598,
    "longitude": 126.6980124
  },
  {
    "media": "2TV생생정보",
    "name": "용궁칼국수",
    "detail": "2TV생생정보 1441회 해물장단콩칼국수",
    "latitude": 37.7901865,
    "longitude": 126.6838333
  },
  {
    "media": "2TV생생정보",
    "name": "숑스바베큐 파주본점",
    "detail": "2TV생생정보 1662회 등갈비바비큐 맛집",
    "latitude": 37.7929507,
    "longitude": 126.686172
  },
  {
    "media": "2TV생생정보",
    "name": "쉼골전통된장",
    "detail": "2TV생생정보 1551회 연두부카프레제, 차돌된장전골, 간장수육 맛집",
    "latitude": 37.7917134,
    "longitude": 126.695229
  },
  {
    "media": "2TV생생정보",
    "name": "연잎풍천장어",
    "detail": "2TV생생정보 1566회 연잎삼색장어구이 맛집",
    "latitude": 37.008555,
    "longitude": 127.1376119
  },
  {
    "media": "2TV생생정보",
    "name": "평화김밥",
    "detail": "2TV생생정보 1621회 꼬마김밥 맛집",
    "latitude": 36.9972007,
    "longitude": 127.0837228
  },
  {
    "media": "2TV생생정보",
    "name": "콩마루",
    "detail": "2TV생생정보 1637회 두부보쌈, 두부전골 맛집",
    "latitude": 37.8933358,
    "longitude": 127.2090727
  },
  {
    "media": "2TV생생정보",
    "name": "약산궁능이버섯백숙",
    "detail": "2TV생생정보 1613회 산양삼능이백숙 맛집",
    "latitude": 37.8410742,
    "longitude": 127.2740466
  },
  {
    "media": "2TV생생정보",
    "name": "한가정통어죽",
    "detail": "2TV생생정보 1653회 어죽 맛집",
    "latitude": 37.7711533,
    "longitude": 127.1639057
  },
  {
    "media": "2TV생생정보",
    "name": "갈비1987",
    "detail": "2TV생생정보 1645회 이동갈비한상 맛집",
    "latitude": 38.0321415,
    "longitude": 127.3662643
  },
  {
    "media": "2TV생생정보",
    "name": "인천생갈비 본관",
    "detail": "2TV생생정보 1631회 돼지생갈비, 소갈비탕 맛집",
    "latitude": 37.199327,
    "longitude": 127.0970177
  },
  {
    "media": "2TV생생정보",
    "name": "청해랑",
    "detail": "2TV생생정보 1565회 대게활어회한상 맛집",
    "latitude": 37.2049951,
    "longitude": 127.0732442
  },
  {
    "media": "2TV생생정보",
    "name": "경성",
    "detail": "2TV생생정보 1643회 훈연생선구이정식 맛집",
    "latitude": 37.1865121,
    "longitude": 126.9811404
  },
  {
    "media": "2TV생생정보",
    "name": "6시내고향회센타",
    "detail": "2TV생생정보 1635회 전어 맛집",
    "latitude": 37.2127114,
    "longitude": 126.7357903
  },
  {
    "media": "2TV생생정보",
    "name": "신영통명품생태",
    "detail": "2TV생생정보 1670회 생태찌개 맛집",
    "latitude": 37.2356487,
    "longitude": 127.0605793
  },
  {
    "media": "2TV생생정보",
    "name": "수양식당",
    "detail": "2TV생생정보 1546회 회정식 맛집",
    "latitude": 35.0452988,
    "longitude": 128.444726
  },
  {
    "media": "2TV생생정보",
    "name": "섬낚시횟집",
    "detail": "2TV생생정보 1587회 갯장어 맛집",
    "latitude": 34.9043681,
    "longitude": 128.2733659
  },
  {
    "media": "2TV생생정보",
    "name": "군령포하모자연산횟집",
    "detail": "2TV생생정보 1587회 갯장어 맛집",
    "latitude": 34.9172326,
    "longitude": 128.2973173
  },
  {
    "media": "2TV생생정보",
    "name": "상동현자추어탕",
    "detail": "2TV생생정보 1582회 맑은추어탕 맛집",
    "latitude": 35.5277694,
    "longitude": 128.7816696
  },
  {
    "media": "2TV생생정보",
    "name": "일신식당",
    "detail": "2TV생생정보 1583회 쏘가리매운탕 맛집",
    "latitude": 35.4923283,
    "longitude": 127.836055
  },
  {
    "media": "2TV생생정보",
    "name": "채움식육식당",
    "detail": "2TV생생정보 1606회 한우사골곰탕, 소불고기정식, 김치찌개정식, 된장찌개정식 맛집",
    "latitude": 35.3086733,
    "longitude": 129.0094133
  },
  {
    "media": "2TV생생정보",
    "name": "삼오식당 창녕본점",
    "detail": "2TV생생정보 1572회 수구레국밥 맛집",
    "latitude": 35.5410473,
    "longitude": 128.4972659
  },
  {
    "media": "2TV생생정보",
    "name": "강림통술 1호점",
    "detail": "2TV생생정보 1552회 통술요리한상차림 맛집",
    "latitude": 35.2085908,
    "longitude": 128.577943
  },
  {
    "media": "2TV생생정보",
    "name": "멍게가",
    "detail": "2TV생생정보 519회 멍게",
    "latitude": 34.8413645,
    "longitude": 128.4227695
  },
  {
    "media": "2TV생생정보",
    "name": "할매 우짜",
    "detail": "2TV생생정보 1548회 우짜, 빼떼기죽 맛집",
    "latitude": 34.8412795,
    "longitude": 128.4194451
  },
  {
    "media": "2TV생생정보",
    "name": "동백식당",
    "detail": "2TV생생정보 1630회 참게탕, 메기탕, 재첩회 맛집",
    "latitude": 35.1898034,
    "longitude": 127.6230313
  },
  {
    "media": "2TV생생정보",
    "name": "무진정돌짜장",
    "detail": "2TV생생정보 1613회 돌짜장, 통문어짬뽕 맛집",
    "latitude": 35.2549975,
    "longitude": 128.4225296
  },
  {
    "media": "2TV생생정보",
    "name": "보리채",
    "detail": "2TV생생정보 1545회 돼지국밥, 순대 맛집",
    "latitude": 35.4638583,
    "longitude": 128.00082
  },
  {
    "media": "2TV생생정보",
    "name": "감로당",
    "detail": "2TV생생정보 1531회 쫄면",
    "latitude": 35.8484629,
    "longitude": 129.1039496
  },
  {
    "media": "2TV생생정보",
    "name": "경주밀면 본점",
    "detail": "2TV생생정보 1589회 밀면, 숯불고기 맛집",
    "latitude": 35.7733763,
    "longitude": 129.3031067
  },
  {
    "media": "2TV생생정보",
    "name": "가잠",
    "detail": "2TV생생정보 1557회 물회, 쪽갈비 맛집",
    "latitude": 36.1167912,
    "longitude": 128.3482337
  },
  {
    "media": "2TV생생정보",
    "name": "현구3대원조불고기",
    "detail": "2TV생생정보 1658회 흑돼지고추장구이 맛집",
    "latitude": 35.9884021,
    "longitude": 128.0281487
  },
  {
    "media": "2TV생생정보",
    "name": "솔봉숯불구이",
    "detail": "2TV생생정보 1650회 돼지숯불구이 맛집",
    "latitude": 36.8828173,
    "longitude": 128.8161689
  },
  {
    "media": "2TV생생정보",
    "name": "맛우짜",
    "detail": "2TV생생정보 850회 찜닭자장면/냉우동",
    "latitude": 36.563993,
    "longitude": 128.73169
  },
  {
    "media": "2TV생생정보",
    "name": "금성수산",
    "detail": "2TV생생정보 1601회 도화새우&가리비 맛집",
    "latitude": 37.0582528,
    "longitude": 129.4246594
  },
  {
    "media": "2TV생생정보",
    "name": "운하회대게식당",
    "detail": "2TV생생정보 1598회 물회 맛집",
    "latitude": 36.0356467,
    "longitude": 129.369752
  },
  {
    "media": "2TV생생정보",
    "name": "마라도회식당",
    "detail": "2TV생생정보 1611회 물회 맛집",
    "latitude": 36.0647697,
    "longitude": 129.3871876
  },
  {
    "media": "2TV생생정보",
    "name": "원이네웰빙호떡튀김",
    "detail": "2TV생생정보 1670회 상추튀김 맛집",
    "latitude": 35.1719501,
    "longitude": 126.9209778
  },
  {
    "media": "2TV생생정보",
    "name": "나정상회",
    "detail": "2TV생생정보 1078회 갈비조립",
    "latitude": 35.1512097,
    "longitude": 126.836712
  },
  {
    "media": "2TV생생정보",
    "name": "육전 한옥",
    "detail": "2TV생생정보 1670회 육전 맛집",
    "latitude": 35.1522524,
    "longitude": 126.8544422
  },
  {
    "media": "2TV생생정보",
    "name": "원조이방아지매",
    "detail": "2TV생생정보 1645회 수구레국밥 맛집",
    "latitude": 35.6947517,
    "longitude": 128.4422432
  },
  {
    "media": "2TV생생정보",
    "name": "반야월연꽃마을협동조합",
    "detail": "2TV생생정보 1594회 연근차, 연잎라떼, 연근쿠키 맛집",
    "latitude": 35.8626471,
    "longitude": 128.737212
  },
  {
    "media": "2TV생생정보",
    "name": "반고개의성무침회본점",
    "detail": "2TV생생정보 1594회 무침회, 납작만두, 동죽조개탕 맛집",
    "latitude": 35.8626047,
    "longitude": 128.5700446
  },
  {
    "media": "2TV생생정보",
    "name": "울진참가자미",
    "detail": "2TV생생정보 1564회 자연산물회 맛집",
    "latitude": 35.856524,
    "longitude": 128.6168509
  },
  {
    "media": "2TV생생정보",
    "name": "낙영찜갈비 본점",
    "detail": "2TV생생정보 120회 찜갈비",
    "latitude": 35.8712706,
    "longitude": 128.6049424
  },
  {
    "media": "2TV생생정보",
    "name": "동성로카페 스위트앤드",
    "detail": "2TV생생정보 1603회 짜장면빙수, 짬뽕빙수 맛집",
    "latitude": 35.8660565,
    "longitude": 128.5970044
  },
  {
    "media": "2TV생생정보",
    "name": "짬뽕차이나",
    "detail": "2TV생생정보 1618회 중화요리뷔페 맛집",
    "latitude": 36.3069083,
    "longitude": 127.4510313
  },
  {
    "media": "2TV생생정보",
    "name": "큰뫼골",
    "detail": "2TV생생정보 1587회 민물새우탕 맛집",
    "latitude": 36.3866823,
    "longitude": 127.480494
  },
  {
    "media": "2TV생생정보",
    "name": "바보곰탕",
    "detail": "2TV생생정보 1641회 한우방치찜 맛집",
    "latitude": 36.3692968,
    "longitude": 127.3817551
  },
  {
    "media": "2TV생생정보",
    "name": "월광박속낙지탕",
    "detail": "2TV생생정보 1663회 박속낙지탕 맛집",
    "latitude": 36.3591291,
    "longitude": 127.3772627
  },
  {
    "media": "2TV생생정보",
    "name": "산골묵집",
    "detail": "2TV생생정보 1600회 채묵, 도토리전, 보리밥 맛집",
    "latitude": 36.416073,
    "longitude": 127.3840753
  },
  {
    "media": "2TV생생정보",
    "name": "숯골원냉면 본점",
    "detail": "2TV생생정보 1616회 냉면 맛집",
    "latitude": 36.3901104,
    "longitude": 127.3502532
  },
  {
    "media": "2TV생생정보",
    "name": "맛나분식",
    "detail": "2TV생생정보 1123회 떡볶이/김밥/부추전/순대",
    "latitude": 35.155658,
    "longitude": 129.058159
  },
  {
    "media": "2TV생생정보",
    "name": "김가네 삼색칼국수",
    "detail": "2TV생생정보 1574회 삼색해물칼국수 맛집",
    "latitude": 35.2216005,
    "longitude": 129.0842947
  },
  {
    "media": "2TV생생정보",
    "name": "황금족발",
    "detail": "2TV생생정보 1555회 족발 맛집",
    "latitude": 35.0898017,
    "longitude": 129.0415196
  },
  {
    "media": "2TV생생정보",
    "name": "인터랙트 with 글루텐프리",
    "detail": "2TV생생정보 1628회 호두카카오초콜릿쿠키, 블루베리치즈크럼블 맛집",
    "latitude": 37.5065248,
    "longitude": 127.0248564
  },
  {
    "media": "2TV생생정보",
    "name": "풍년집",
    "detail": "2TV생생정보 1640회 소갈비살 맛집",
    "latitude": 37.492678,
    "longitude": 127.0347956
  },
  {
    "media": "2TV생생정보",
    "name": "바이트샌드위치&샐러드",
    "detail": "2TV생생정보 1580회 샌드위치 맛집",
    "latitude": 37.5122834,
    "longitude": 127.0517546
  },
  {
    "media": "2TV생생정보",
    "name": "가나돈까스의집",
    "detail": "2TV생생정보 765회 돈가스",
    "latitude": 37.5098824,
    "longitude": 127.037748
  },
  {
    "media": "2TV생생정보",
    "name": "한교방 서울면옥",
    "detail": "2TV생생정보 1634회 소갈비찜, 육전냉면 맛집",
    "latitude": 37.5167961,
    "longitude": 127.0380778
  },
  {
    "media": "2TV생생정보",
    "name": "버섯잔치집 본점",
    "detail": "2TV생생정보 1624회 반반버섯전골 맛집",
    "latitude": 37.5282888,
    "longitude": 127.1256723
  },
  {
    "media": "2TV생생정보",
    "name": "옛곰탕집",
    "detail": "2TV생생정보 1390회 곰탕",
    "latitude": 37.631508,
    "longitude": 127.022731
  },
  {
    "media": "2TV생생정보",
    "name": "예성닭도리탕",
    "detail": "2TV생생정보 1646회 묵은지닭도리탕 맛집",
    "latitude": 37.6386984,
    "longitude": 127.0253296
  },
  {
    "media": "2TV생생정보",
    "name": "풍천장어구이 파김치장어전골 화곡점",
    "detail": "2TV생생정보 1664회 파장어전골 맛집",
    "latitude": 37.5283748,
    "longitude": 126.8403918
  },
  {
    "media": "2TV생생정보",
    "name": "탑퓨전포차",
    "detail": "2TV생생정보 1666회 안주무한리필 맛집",
    "latitude": 37.4825678,
    "longitude": 126.9294284
  },
  {
    "media": "2TV생생정보",
    "name": "소사면옥 군자역본점",
    "detail": "2TV생생정보 1608회 코다리냉면, 물냉면 맛집",
    "latitude": 37.5540374,
    "longitude": 127.0780827
  },
  {
    "media": "2TV생생정보",
    "name": "할매복집",
    "detail": "2TV생생정보 1668회 복불고기 맛집",
    "latitude": 37.5469772,
    "longitude": 127.1072184
  },
  {
    "media": "2TV생생정보",
    "name": "손가네생오리부페",
    "detail": "2TV생생정보 1564회 오리고기무제한 맛집",
    "latitude": 37.4933738,
    "longitude": 126.8557833
  },
  {
    "media": "2TV생생정보",
    "name": "무한자금성",
    "detail": "2TV생생정보 1636회 탕수육, 깐풍기, 팔보채 맛집",
    "latitude": 37.4839163,
    "longitude": 126.8940805
  },
  {
    "media": "2TV생생정보",
    "name": "가산물갈비&백년불고기",
    "detail": "2TV생생정보 1170회 산더미물갈비",
    "latitude": 37.4771592,
    "longitude": 126.8837142
  },
  {
    "media": "2TV생생정보",
    "name": "도원",
    "detail": "2TV생생정보 1672회 깐풍기, 고추잡채, 양장피 맛집",
    "latitude": 37.465603,
    "longitude": 126.8876967
  },
  {
    "media": "2TV생생정보",
    "name": "신가네칼국수",
    "detail": "2TV생생정보 1584회 서리태콩국수 맛집",
    "latitude": 37.6356584,
    "longitude": 127.0702137
  },
  {
    "media": "2TV생생정보",
    "name": "엄마손술빵",
    "detail": "2TV생생정보 1573회 술빵 맛집",
    "latitude": 37.6227467,
    "longitude": 127.0767692
  },
  {
    "media": "2TV생생정보",
    "name": "용순가재골수제비",
    "detail": "2TV생생정보 1610회 얼큰수제비",
    "latitude": 37.67443,
    "longitude": 127.060634
  },
  {
    "media": "2TV생생정보",
    "name": "도봉산두부",
    "detail": "2TV생생정보 402회 포두부삼합/두부",
    "latitude": 37.686204,
    "longitude": 127.037355
  },
  {
    "media": "2TV생생정보",
    "name": "조영환의대양한방숯불갈비",
    "detail": "2TV생생정보 1592회 한방숯불돼지갈비, 냉면 맛집",
    "latitude": 37.5752378,
    "longitude": 127.0377488
  },
  {
    "media": "2TV생생정보",
    "name": "탕미옥",
    "detail": "2TV생생정보 1619회 전복문어갈비찜, 보양우족찜 맛집",
    "latitude": 37.5786393,
    "longitude": 127.0331255
  },
  {
    "media": "2TV생생정보",
    "name": "BK볏짚 우대갈비 장안동본점",
    "detail": "2TV생생정보 1611회 우대갈비, 된장찌개 맛집",
    "latitude": 37.5704116,
    "longitude": 127.0715869
  },
  {
    "media": "2TV생생정보",
    "name": "육지",
    "detail": "2TV생생정보 1626회 숙성돈대갈비접기 맛집",
    "latitude": 37.5496608,
    "longitude": 126.9174559
  },
  {
    "media": "2TV생생정보",
    "name": "동일루",
    "detail": "2TV생생정보 1074회 찹쌀탕수육",
    "latitude": 37.553813,
    "longitude": 126.905607
  },
  {
    "media": "2TV생생정보",
    "name": "독박골맛있는집",
    "detail": "2TV생생정보 1652회 간장코다리조림 맛집",
    "latitude": 37.5619858,
    "longitude": 126.9678239
  },
  {
    "media": "2TV생생정보",
    "name": "달인꽈배기",
    "detail": "2TV생생정보 1666회 꽈배기 맛집",
    "latitude": 37.5711998,
    "longitude": 126.960768
  },
  {
    "media": "2TV생생정보",
    "name": "바나나트리 성수점",
    "detail": "2TV생생정보 1596회 화분빙수 맛집",
    "latitude": 37.548099,
    "longitude": 127.0428089
  },
  {
    "media": "2TV생생정보",
    "name": "밀도 성수점",
    "detail": "2TV생생정보 560회 식빵",
    "latitude": 37.546254,
    "longitude": 127.044859
  },
  {
    "media": "2TV생생정보",
    "name": "자연향",
    "detail": "2TV생생정보 1585회 항아리오리바비큐, 항아리통삼겹바비큐 맛집",
    "latitude": 37.6161513,
    "longitude": 127.005489
  },
  {
    "media": "2TV생생정보",
    "name": "동선식당",
    "detail": "2TV생생정보 1597회 금반지갈비찜 맛집",
    "latitude": 37.5897991,
    "longitude": 127.0190968
  },
  {
    "media": "2TV생생정보",
    "name": "일루 퓨전한식뷔페",
    "detail": "2TV생생정보 1624회 치맥무한리필 맛집",
    "latitude": 37.4880337,
    "longitude": 127.1205138
  },
  {
    "media": "2TV생생정보",
    "name": "천미미",
    "detail": "2TV생생정보 1625회 통낙지쟁반짜장, 통오징어짬뽕 맛집",
    "latitude": 37.49411,
    "longitude": 127.1202119
  },
  {
    "media": "2TV생생정보",
    "name": "전복하다 목동직영점",
    "detail": "2TV생생정보 1551회 전복 맛집",
    "latitude": 37.5229194,
    "longitude": 126.8634118
  },
  {
    "media": "2TV생생정보",
    "name": "계옥정",
    "detail": "2TV생생정보 1591회 닭특수부위구이 맛집",
    "latitude": 37.5132888,
    "longitude": 126.8933588
  },
  {
    "media": "2TV생생정보",
    "name": "선주후면 어만두",
    "detail": "2TV생생정보 1669회 어복쟁반, 만두전골 맛집",
    "latitude": 37.522863,
    "longitude": 126.92409
  },
  {
    "media": "2TV생생정보",
    "name": "느루집",
    "detail": "2TV생생정보 1661회 치즈닭갈비, 삼겹닭갈비 맛집",
    "latitude": 37.517425,
    "longitude": 126.8964798
  },
  {
    "media": "2TV생생정보",
    "name": "더베이커스테이블",
    "detail": "2TV생생정보 603회 독일요리",
    "latitude": 37.5394055,
    "longitude": 126.9874586
  },
  {
    "media": "2TV생생정보",
    "name": "열봉부엌",
    "detail": "2TV생생정보 273회 차돌불고기/바다무침",
    "latitude": 37.539253,
    "longitude": 126.969231
  },
  {
    "media": "2TV생생정보",
    "name": "평양초계탕막국수",
    "detail": "2TV생생정보 1564회 초계탕 맛집",
    "latitude": 37.6576474,
    "longitude": 126.9470632
  },
  {
    "media": "2TV생생정보",
    "name": "빅토리아 응암본점",
    "detail": "2TV생생정보 1323회 등갈비김치찜/등갈비튀김",
    "latitude": 37.593943,
    "longitude": 126.916653
  },
  {
    "media": "2TV생생정보",
    "name": "안성또순이",
    "detail": "2TV생생정보 691회 생태찌개",
    "latitude": 37.5716205,
    "longitude": 126.9716406
  },
  {
    "media": "2TV생생정보",
    "name": "책읽는고양이",
    "detail": "2TV생생정보 1672회 아메리카노 맛집",
    "latitude": 37.5777563,
    "longitude": 127.0081475
  },
  {
    "media": "2TV생생정보",
    "name": "평창칼국수",
    "detail": "2TV생생정보 1597회 산더미비빔밥 맛집",
    "latitude": 37.5705894,
    "longitude": 127.0016192
  },
  {
    "media": "2TV생생정보",
    "name": "풍년쌀농산",
    "detail": "2TV생생정보 573회 떡볶이/떡꼬치 맛집",
    "latitude": 37.580888,
    "longitude": 126.981668
  },
  {
    "media": "2TV생생정보",
    "name": "통돼지집",
    "detail": "2TV생생정보 1672회 통돼지삼겹살, 통돼지갈매기살 맛집",
    "latitude": 37.5731895,
    "longitude": 126.9906771
  },
  {
    "media": "2TV생생정보",
    "name": "원조 순희네 빈대떡",
    "detail": "2TV생생정보 852회 녹두전",
    "latitude": 37.570597,
    "longitude": 127.000711
  },
  {
    "media": "2TV생생정보",
    "name": "무교동낙지",
    "detail": "2TV생생정보 1550회 낙지볶음 맛집",
    "latitude": 37.5716008,
    "longitude": 126.9794439
  },
  {
    "media": "2TV생생정보",
    "name": "삼모녀마약김밥",
    "detail": "2TV생생정보 1661회 꼬마김밥 맛집",
    "latitude": 37.5700398,
    "longitude": 126.9996036
  },
  {
    "media": "2TV생생정보",
    "name": "남해식당",
    "detail": "2TV생생정보 1667회 칼국수 맛집",
    "latitude": 37.5582768,
    "longitude": 126.9769987
  },
  {
    "media": "2TV생생정보",
    "name": "용금옥",
    "detail": "2TV생생정보 711회 추어탕",
    "latitude": 37.567578,
    "longitude": 126.980575
  },
  {
    "media": "2TV생생정보",
    "name": "머거보까매운갈비찜",
    "detail": "2TV생생정보 1549회 매운돼지갈비찜 맛집",
    "latitude": 37.5536645,
    "longitude": 127.0106376
  },
  {
    "media": "2TV생생정보",
    "name": "설렁탕.족탕.꼬리곰탕의 문화옥",
    "detail": "2TV생생정보 1586회 설렁탕, 수육 맛집",
    "latitude": 37.568082,
    "longitude": 126.9984559
  },
  {
    "media": "2TV생생정보",
    "name": "북경반점",
    "detail": "2TV생생정보 1588회 짜장면, 짬뽕, 탕수육 맛집",
    "latitude": 35.4996611,
    "longitude": 129.4248525
  },
  {
    "media": "2TV생생정보",
    "name": "자연애",
    "detail": "2TV생생정보 1651회 보양오리백숙 맛집",
    "latitude": 37.6320993,
    "longitude": 126.443154
  },
  {
    "media": "2TV생생정보",
    "name": "계산동 물꽁오리",
    "detail": "2TV생생정보 1615회 매콤오리주물럭, 간장오리불고기 맛집",
    "latitude": 37.5374191,
    "longitude": 126.7277486
  },
  {
    "media": "2TV생생정보",
    "name": "고가네본가왕족발보쌈감자탕 본점",
    "detail": "2TV생생정보 1654회 족발, 불족발, 보쌈, 감자탕 맛집",
    "latitude": 37.463917,
    "longitude": 126.7078165
  },
  {
    "media": "2TV생생정보",
    "name": "복마중 인천1호점",
    "detail": "2TV생생정보 1615회 복맑은탕, 복불고기 맛집",
    "latitude": 37.4489453,
    "longitude": 126.7068897
  },
  {
    "media": "2TV생생정보",
    "name": "옥심국수",
    "detail": "2TV생생정보 1576회 비빔막국수 맛집",
    "latitude": 37.4567046,
    "longitude": 126.718026
  },
  {
    "media": "2TV생생정보",
    "name": "가마고개",
    "detail": "2TV생생정보 1620회 족발골뱅이 맛집",
    "latitude": 37.4526884,
    "longitude": 126.635669
  },
  {
    "media": "2TV생생정보",
    "name": "이모네부침",
    "detail": "2TV생생정보 1591회 하트전 맛집",
    "latitude": 37.4466828,
    "longitude": 126.6778995
  },
  {
    "media": "2TV생생정보",
    "name": "싱싱부평어시장",
    "detail": "2TV생생정보 1612회 모둠회정식, 물회정식 맛집",
    "latitude": 37.4954133,
    "longitude": 126.7250623
  },
  {
    "media": "2TV생생정보",
    "name": "청라다슬기해신탕",
    "detail": "2TV생생정보 1578회 다슬기해신탕 맛집",
    "latitude": 37.5304923,
    "longitude": 126.644058
  },
  {
    "media": "2TV생생정보",
    "name": "군봉묵은지김치찜",
    "detail": "2TV생생정보 1581회 묵은지찜 맛집",
    "latitude": 37.428491,
    "longitude": 126.6514232
  },
  {
    "media": "2TV생생정보",
    "name": "따룽훠궈 송도점",
    "detail": "2TV생생정보 1188회 황제샤부샤부",
    "latitude": 37.394332,
    "longitude": 126.640779
  },
  {
    "media": "2TV생생정보",
    "name": "황강짬뽕",
    "detail": "2TV생생정보 1649회 철판조개짬뽕 맛집",
    "latitude": 37.3858313,
    "longitude": 126.6438226
  },
  {
    "media": "2TV생생정보",
    "name": "황금손해물칼국수 무의점",
    "detail": "2TV생생정보 1607회 꽃게칼국수, 해물파전 맛집",
    "latitude": 37.3887482,
    "longitude": 126.4263864
  },
  {
    "media": "2TV생생정보",
    "name": "어부신광호",
    "detail": "2TV생생정보 1577회 꽃무지개물회 맛집",
    "latitude": 37.4416725,
    "longitude": 126.3790791
  },
  {
    "media": "2TV생생정보",
    "name": "을왕리빵판다카페",
    "detail": "2TV생생정보 1560회 크림치즈바게트 맛집",
    "latitude": 37.4670778,
    "longitude": 126.3722548
  },
  {
    "media": "2TV생생정보",
    "name": "양자강",
    "detail": "2TV생생정보 1579회 왕갈비짬뽕, 중식닭고기볶음 맛집",
    "latitude": 37.4620226,
    "longitude": 126.372014
  },
  {
    "media": "2TV생생정보",
    "name": "시골쌈밥",
    "detail": "2TV생생정보 1554회 우렁이쌈밥정식 맛집",
    "latitude": 37.4705772,
    "longitude": 126.6268733
  },
  {
    "media": "2TV생생정보",
    "name": "영종원조국수",
    "detail": "2TV생생정보 1626회 김치말이국수 맛집",
    "latitude": 37.4924188,
    "longitude": 126.538727
  },
  {
    "media": "2TV생생정보",
    "name": "작약도",
    "detail": "2TV생생정보 1590회 모둠해산물세트 맛집",
    "latitude": 37.4923063,
    "longitude": 126.580962
  },
  {
    "media": "2TV생생정보",
    "name": "만다복",
    "detail": "2TV생생정보 325회 백년짜장/과파육",
    "latitude": 37.476068,
    "longitude": 126.619269
  },
  {
    "media": "2TV생생정보",
    "name": "공가네",
    "detail": "2TV생생정보 228회 대왕카스테라",
    "latitude": 37.47538,
    "longitude": 126.619235
  },
  {
    "media": "2TV생생정보",
    "name": "화정상회",
    "detail": "2TV생생정보 1556회 숯불생선구이 맛집",
    "latitude": 34.6078183,
    "longitude": 127.2865281
  },
  {
    "media": "2TV생생정보",
    "name": "과역기사님식당",
    "detail": "2TV생생정보 1556회 삼겹살백반 맛집",
    "latitude": 34.677155,
    "longitude": 127.3610218
  },
  {
    "media": "2TV생생정보",
    "name": "메란명가",
    "detail": "2TV생생정보 1616회 깨비정식 맛집",
    "latitude": 35.2780943,
    "longitude": 127.2941952
  },
  {
    "media": "2TV생생정보",
    "name": "미카129",
    "detail": "2TV생생정보 1616회 토란아이스크림 맛집",
    "latitude": 35.2795011,
    "longitude": 127.2984568
  },
  {
    "media": "2TV생생정보",
    "name": "모짜르트 제과점",
    "detail": "2TV생생정보 1616회 토란빵 맛집",
    "latitude": 35.2804206,
    "longitude": 127.2932087
  },
  {
    "media": "2TV생생정보",
    "name": "연화랑",
    "detail": "2TV생생정보 1558회 중화요리무제한 맛집",
    "latitude": 34.970605,
    "longitude": 127.579078
  },
  {
    "media": "2TV생생정보",
    "name": "옛날쑥붕어빵",
    "detail": "2TV생생정보 1668회 쑥붕어빵 맛집",
    "latitude": 35.0261042,
    "longitude": 127.6165823
  },
  {
    "media": "2TV생생정보",
    "name": "나루터횟집",
    "detail": "2TV생생정보 1668회 재첩국수, 돼지고기육전 맛집",
    "latitude": 34.9667499,
    "longitude": 127.7572548
  },
  {
    "media": "2TV생생정보",
    "name": "죽순닭국수",
    "detail": "2TV생생정보 1612회 죽순닭국수, 대잎계란 맛집",
    "latitude": 35.3239436,
    "longitude": 126.982602
  },
  {
    "media": "2TV생생정보",
    "name": "옛날진미국수",
    "detail": "2TV생생정보 1565회 멸치국물국수, 열무비빔국수 맛집",
    "latitude": 35.3241081,
    "longitude": 126.9835106
  },
  {
    "media": "2TV생생정보",
    "name": "담양애꽃",
    "detail": "2TV생생정보 1629회 수제떡갈비 맛집",
    "latitude": 35.2729621,
    "longitude": 126.972575
  },
  {
    "media": "2TV생생정보",
    "name": "꾸지뽕 왕꽈배기",
    "detail": "2TV생생정보 1658회 꽈배기 맛집",
    "latitude": 34.7922207,
    "longitude": 126.4030726
  },
  {
    "media": "2TV생생정보",
    "name": "목포상회",
    "detail": "2TV생생정보 1658회 떡갈비 맛집",
    "latitude": 34.8049016,
    "longitude": 126.3923548
  },
  {
    "media": "2TV생생정보",
    "name": "남도랑",
    "detail": "2TV생생정보 1653회 낙지탕탕이, 낙지호롱구이 맛집",
    "latitude": 34.8045902,
    "longitude": 126.4293178
  },
  {
    "media": "2TV생생정보",
    "name": "꽃불구이",
    "detail": "2TV생생정보 1630회 삼겹살, 항정살, 돼지갈비 맛집",
    "latitude": 34.7980041,
    "longitude": 126.4326149
  },
  {
    "media": "2TV생생정보",
    "name": "신흥회식당",
    "detail": "2TV생생정보 1658회 낙지호롱, 전어회무침 맛집",
    "latitude": 34.7930486,
    "longitude": 126.4029616
  },
  {
    "media": "2TV생생정보",
    "name": "백년홍어수산",
    "detail": "2TV생생정보 1658회 홍어 맛집",
    "latitude": 34.7930486,
    "longitude": 126.4029616
  },
  {
    "media": "2TV생생정보",
    "name": "장터털보식당",
    "detail": "2TV생생정보 1582회 백반 맛집",
    "latitude": 34.847123,
    "longitude": 126.4942264
  },
  {
    "media": "2TV생생정보",
    "name": "김형석민물장어",
    "detail": "2TV생생정보 1611회 민물장어 맛집",
    "latitude": 34.7828619,
    "longitude": 127.2106935
  },
  {
    "media": "2TV생생정보",
    "name": "하우리부일호횟집",
    "detail": "2TV생생정보 1615회 민어백숙, 민어껍질초밥, 민어맑은탕, 민어튀김, 민어전 맛집",
    "latitude": 35.1003076,
    "longitude": 126.0614378
  },
  {
    "media": "2TV생생정보",
    "name": "옛날그집",
    "detail": "2TV생생정보 1642회 게장백반 맛집",
    "latitude": 34.7405452,
    "longitude": 127.7342188
  },
  {
    "media": "2TV생생정보",
    "name": "미미식당",
    "detail": "2TV생생정보 1574회 덕자조림 맛집",
    "latitude": 35.3573412,
    "longitude": 126.4478959
  },
  {
    "media": "2TV생생정보",
    "name": "갈매기식당",
    "detail": "2TV생생정보 1642회 한상차림 맛집",
    "latitude": 35.3600523,
    "longitude": 126.4474061
  },
  {
    "media": "2TV생생정보",
    "name": "삭금 남촌횟집",
    "detail": "2TV생생정보 1627회 장흥전어밥상 맛집",
    "latitude": 34.4481048,
    "longitude": 126.9277193
  },
  {
    "media": "2TV생생정보",
    "name": "청호회관",
    "detail": "2TV생생정보 1608회 울금전복요리 맛집",
    "latitude": 34.4837453,
    "longitude": 126.2655183
  },
  {
    "media": "2TV생생정보",
    "name": "우리풍천장어",
    "detail": "2TV생생정보 1652회 장어구이, 장어탕 맛집",
    "latitude": 35.4313639,
    "longitude": 126.723714
  },
  {
    "media": "2TV생생정보",
    "name": "넓은들",
    "detail": "2TV생생정보 1652회 새싹보리디저트 맛집",
    "latitude": 35.3763158,
    "longitude": 126.5428108
  },
  {
    "media": "2TV생생정보",
    "name": "천하장사",
    "detail": "2TV생생정보 1655회 갈비곱창구이, 매운갈비찜 맛집",
    "latitude": 35.9685162,
    "longitude": 126.6985078
  },
  {
    "media": "2TV생생정보",
    "name": "등구령쉼터",
    "detail": "2TV생생정보 1620회 곰취전, 표고버섯전 맛집",
    "latitude": 37.5254027,
    "longitude": 127.6580241
  },
  {
    "media": "2TV생생정보",
    "name": "군산식당",
    "detail": "2TV생생정보 1666회 백합정식 맛집",
    "latitude": 35.624195,
    "longitude": 126.471258
  },
  {
    "media": "2TV생생정보",
    "name": "변산온천산장",
    "detail": "2TV생생정보 1599회 바지락죽, 바지락무침 맛집",
    "latitude": 35.6884088,
    "longitude": 126.558997
  },
  {
    "media": "2TV생생정보",
    "name": "화탄매운탕",
    "detail": "2TV생생정보 1557회 메기매운탕 맛집",
    "latitude": 35.3902944,
    "longitude": 127.1979129
  },
  {
    "media": "2TV생생정보",
    "name": "산산산",
    "detail": "2TV생생정보 1551회 두릅튀김, 인삼튀김 맛집",
    "latitude": 36.1165673,
    "longitude": 127.330589
  },
  {
    "media": "2TV생생정보",
    "name": "시장비빔밥",
    "detail": "2TV생생정보 1624회 육회비빔밥, 모듬순대 맛집",
    "latitude": 36.0062733,
    "longitude": 126.9452924
  },
  {
    "media": "2TV생생정보",
    "name": "다우랑",
    "detail": "2TV생생정보 1546회 미나리만두 맛집",
    "latitude": 35.8142023,
    "longitude": 127.151015
  },
  {
    "media": "2TV생생정보",
    "name": "교동집",
    "detail": "2TV생생정보 1546회 물짜장 맛집",
    "latitude": 35.8119107,
    "longitude": 127.152913
  },
  {
    "media": "2TV생생정보",
    "name": "카페미깡",
    "detail": "2TV생생정보 1638회 청귤에이드 맛집",
    "latitude": 33.3420367,
    "longitude": 126.5884214
  },
  {
    "media": "2TV생생정보",
    "name": "제주운정이네",
    "detail": "2TV생생정보 1658회 생갈치구이, 생갈치조림 맛집",
    "latitude": 33.2635619,
    "longitude": 126.4378075
  },
  {
    "media": "2TV생생정보",
    "name": "갑사 서울식당",
    "detail": "2TV생생정보 1556회 제철나물한상 맛집",
    "latitude": 36.3690581,
    "longitude": 127.1800756
  },
  {
    "media": "2TV생생정보",
    "name": "마세오른",
    "detail": "2TV생생정보 1623회 닭불고기, 탕수기 맛집",
    "latitude": 36.4024883,
    "longitude": 127.2313679
  },
  {
    "media": "2TV생생정보",
    "name": "시장정육점식당",
    "detail": "2TV생생정보 1655회 알밤육회비빔밥 맛집",
    "latitude": 36.465866,
    "longitude": 127.1222399
  },
  {
    "media": "2TV생생정보",
    "name": "마곡사서울식당",
    "detail": "2TV생생정보 1632회 산채정식 맛집",
    "latitude": 36.556142,
    "longitude": 127.0197299
  },
  {
    "media": "2TV생생정보",
    "name": "솥뚜껑 매운탕",
    "detail": "2TV생생정보 1576회 메기새우매운탕 맛집",
    "latitude": 36.4793977,
    "longitude": 127.0476227
  },
  {
    "media": "2TV생생정보",
    "name": "황해도전통손만두국",
    "detail": "2TV생생정보 1635회 황해도식호박만두전골 맛집",
    "latitude": 36.4512645,
    "longitude": 127.1343329
  },
  {
    "media": "2TV생생정보",
    "name": "해나루도넛츠",
    "detail": "2TV생생정보 1615회 찹쌀꽈배기 맛집",
    "latitude": 36.8909244,
    "longitude": 126.6299418
  },
  {
    "media": "2TV생생정보",
    "name": "슬하네회타운",
    "detail": "2TV생생정보 1560회 꽃게찜 맛집",
    "latitude": 36.3264174,
    "longitude": 126.5088676
  },
  {
    "media": "2TV생생정보",
    "name": "오양손칼국수",
    "detail": "2TV생생정보 1550회 키조개손칼국수, 보리밥 맛집",
    "latitude": 36.4390073,
    "longitude": 126.5220135
  },
  {
    "media": "2TV생생정보",
    "name": "오천항수산물판매센터 8호점",
    "detail": "2TV생생정보 1551회 키조개 맛집",
    "latitude": 36.4393372,
    "longitude": 126.5209232
  },
  {
    "media": "2TV생생정보",
    "name": "카페그랑블루",
    "detail": "2TV생생정보 1550회 머드빙수 맛집",
    "latitude": 36.3398019,
    "longitude": 126.5474635
  },
  {
    "media": "2TV생생정보",
    "name": "만선1호",
    "detail": "2TV생생정보 1547회 광어회 맛집",
    "latitude": 36.1301055,
    "longitude": 126.503195
  },
  {
    "media": "2TV생생정보",
    "name": "두부랑 가마솥손두부",
    "detail": "2TV생생정보 1548회 두부낙지전골, 두부낙지불낙보쌈 맛집",
    "latitude": 36.7966584,
    "longitude": 127.062515
  },
  {
    "media": "2TV생생정보",
    "name": "청미래",
    "detail": "2TV생생정보 1656회 오리주물럭 맛집",
    "latitude": 36.7002904,
    "longitude": 126.6534181
  },
  {
    "media": "2TV생생정보",
    "name": "왕꼬막나라",
    "detail": "2TV생생정보 1594회 꼬막정식 맛집",
    "latitude": 36.7975068,
    "longitude": 127.1913978
  },
  {
    "media": "2TV생생정보",
    "name": "오미오미 수제만두전골&칡냉면",
    "detail": "2TV생생정보 1650회 손만두전골 맛집",
    "latitude": 36.7718393,
    "longitude": 127.2472738
  },
  {
    "media": "2TV생생정보",
    "name": "설촌냉면석갈비",
    "detail": "2TV생생정보 1545회 석갈비 맛집",
    "latitude": 36.8228124,
    "longitude": 127.157034
  },
  {
    "media": "2TV생생정보",
    "name": "안면도꽃지수산식당",
    "detail": "2TV생생정보 1636회 붕장어볶음 맛집",
    "latitude": 36.5000094,
    "longitude": 126.3441623
  },
  {
    "media": "2TV생생정보",
    "name": "서울식당",
    "detail": "2TV생생정보 1595회 마늘떡갈비, 더덕구이 맛집",
    "latitude": 36.9885878,
    "longitude": 128.3819576
  },
  {
    "media": "2TV생생정보",
    "name": "단양너마늘위한치킨",
    "detail": "2TV생생정보 1610회 통마늘닭강정 맛집",
    "latitude": 36.982472,
    "longitude": 128.3698933
  },
  {
    "media": "2TV생생정보",
    "name": "제이비커피",
    "detail": "2TV생생정보 1610회 도담삼봉빙수 맛집",
    "latitude": 36.9873557,
    "longitude": 128.370354
  },
  {
    "media": "2TV생생정보",
    "name": "가연",
    "detail": "2TV생생정보 1569회 마늘떡갈비 맛집",
    "latitude": 36.979156,
    "longitude": 128.353297
  },
  {
    "media": "2TV생생정보",
    "name": "안성식당",
    "detail": "2TV생생정보 1593회 다슬기국밥, 다슬기전 맛집",
    "latitude": 36.2157875,
    "longitude": 127.8978763
  },
  {
    "media": "2TV생생정보",
    "name": "옥천묵집",
    "detail": "2TV생생정보 1614회 도토리냉묵밥 맛집",
    "latitude": 36.3148526,
    "longitude": 127.5830534
  },
  {
    "media": "2TV생생정보",
    "name": "청풍떡갈비",
    "detail": "2TV생생정보 1553회 마늘떡갈비 맛집",
    "latitude": 37.0226211,
    "longitude": 128.1752777
  },
  {
    "media": "2TV생생정보",
    "name": "팔송황기더덕막국수",
    "detail": "2TV생생정보 1571회 더덕막국수, 물수육 맛집",
    "latitude": 37.1325069,
    "longitude": 128.1204478
  },
  {
    "media": "2TV생생정보",
    "name": "오디향",
    "detail": "2TV생생정보 1656회 꽃비빔밥 맛집",
    "latitude": 37.1792411,
    "longitude": 128.2094573
  },
  {
    "media": "2TV생생정보",
    "name": "제천황기명태 청풍점",
    "detail": "2TV생생정보 1617회 황기명태조림 맛집",
    "latitude": 37.0001892,
    "longitude": 128.1661266
  },
  {
    "media": "2TV생생정보",
    "name": "담담",
    "detail": "2TV생생정보 1624회 육전 맛집",
    "latitude": 37.136624,
    "longitude": 128.2113501
  },
  {
    "media": "2TV생생정보",
    "name": "청해식당",
    "detail": "2TV생생정보 1640회 손칼국수 맛집",
    "latitude": 36.8539898,
    "longitude": 127.4483083
  },
  {
    "media": "2TV생생정보",
    "name": "백곡막걸리",
    "detail": "2TV생생정보 1640회 인삼튀김 맛집",
    "latitude": 36.8539898,
    "longitude": 127.4483083
  },
  {
    "media": "2TV생생정보",
    "name": "대산보리밥",
    "detail": "2TV생생정보 1563회 보리밥, 묵은지청국장 맛집",
    "latitude": 36.6093606,
    "longitude": 127.4444845
  },
  {
    "media": "2TV생생정보",
    "name": "천용맛집",
    "detail": "2TV생생정보 1568회 짜글이 맛집",
    "latitude": 36.988099,
    "longitude": 127.9265451
  },
  {
    "media": "2TV생생정보",
    "name": "해남하우스",
    "detail": "2TV생생정보 1673회 해물탕, 해물찜 맛집",
    "latitude": 36.9926916,
    "longitude": 127.8339768
  },
  {
    "media": "2TV생생정보",
    "name": "대성야채만두",
    "detail": "2TV생생정보 1627회 4색만두 맛집",
    "latitude": 36.9741119,
    "longitude": 127.9292362
  },
  {
    "media": "2TV생생정보",
    "name": "꼬꼬댁",
    "detail": "2TV생생정보 24회 통닭",
    "latitude": 37.5804222,
    "longitude": 127.0424972
  },
  {
    "media": "2TV생생정보",
    "name": "남원통닭",
    "detail": "2TV생생정보 1501회 통닭",
    "latitude": 37.5804222,
    "longitude": 127.0424972
  },
  {
    "media": "2TV생생정보",
    "name": "종구네통닭",
    "detail": "2TV생생정보 24회 통닭",
    "latitude": 37.5804222,
    "longitude": 127.0424972
  },
  {
    "media": "2TV생생정보",
    "name": "감나무집기사식당",
    "detail": "2TV생생정보 614회 불고기백반",
    "latitude": 37.561869,
    "longitude": 126.92187
  },
  {
    "media": "2TV생생정보",
    "name": "그문화다방",
    "detail": "2TV생생정보 664회 뱅쇼",
    "latitude": 37.545439,
    "longitude": 126.920308
  },
  {
    "media": "2TV생생정보",
    "name": "강촌원조쭈꾸미본점",
    "detail": "2TV생생정보 285회 산주꾸미볶음/주꾸미",
    "latitude": 37.4832626,
    "longitude": 127.036199
  },
  {
    "media": "2TV생생정보",
    "name": "오코다리 방배점",
    "detail": "2TV생생정보 1128회 전복코다리찜/코다리냉면",
    "latitude": 37.4872223,
    "longitude": 126.9826981
  },
  {
    "media": "2TV생생정보",
    "name": "특돼지 목동본점",
    "detail": "2TV생생정보 351회 치즈폭포불고기",
    "latitude": 37.5256968,
    "longitude": 126.8637362
  },
  {
    "media": "2TV생생정보",
    "name": "송원 마포 돼지갈비",
    "detail": "2TV생생정보 221회 돼지갈비",
    "latitude": 37.5165592,
    "longitude": 126.8893751
  },
  {
    "media": "2TV생생정보",
    "name": "일미집",
    "detail": "2TV생생정보 495회 감자탕백반/감자탕",
    "latitude": 37.5461092,
    "longitude": 126.9782559
  },
  {
    "media": "2TV생생정보",
    "name": "창신동매운족발",
    "detail": "2TV생생정보 416회 매운족발",
    "latitude": 37.572955,
    "longitude": 127.0115145
  },
  {
    "media": "2TV생생정보",
    "name": "인천당",
    "detail": "2TV생생정보 283회 생과자맛집",
    "latitude": 37.4767063,
    "longitude": 126.6280998
  },
  {
    "media": "2TV아침",
    "name": "도암식당",
    "detail": "2TV아침 178회 오삼불고기",
    "latitude": 37.672497,
    "longitude": 128.708006
  },
  {
    "media": "2TV아침",
    "name": "오대산 산채전문점",
    "detail": "2TV아침 311회 산채정식/나물비빔밥",
    "latitude": 37.484686,
    "longitude": 127.03991
  },
  {
    "media": "2TV아침",
    "name": "풍년쌀농산",
    "detail": "2TV아침 144회, 235회 떡볶이 맛집 ",
    "latitude": 37.580888,
    "longitude": 126.981668
  },
  {
    "media": "2TV저녁생생정보",
    "name": "묵호문어집",
    "detail": "2TV저녁생생정보 119회 참문어",
    "latitude": 36.825469,
    "longitude": 128.623837
  },
  {
    "media": "2TV저녁생생정보",
    "name": "오대산 산채전문점",
    "detail": "2TV저녁생생정보 22회 30첩 산채정식",
    "latitude": 37.484686,
    "longitude": 127.03991
  },
  {
    "media": "2TV저녁생생정보",
    "name": "한옥집 김치찜 본점",
    "detail": "2TV저녁생생정보 4회 김치찜",
    "latitude": 37.567222,
    "longitude": 126.964322
  },
  {
    "media": "2TV저녁생생정보",
    "name": "최영희언양불고기",
    "detail": "2TV저녁생생정보 44회 바싹불고기",
    "latitude": 37.561562,
    "longitude": 127.0341272
  },
  {
    "media": "365: 운명을 거스르는 1년",
    "name": "서강대교",
    "detail": "1화 오프닝에서 지형주(이준혁 분)가 이 다리를 건너 운전을 한다.",
    "latitude": 37.536911,
    "longitude": 126.92495
  },
  {
    "media": "365: 운명을 거스르는 1년",
    "name": "낙산공원",
    "detail": "2화에서 신가현(남지현)은 그림을 그리기 위해 밤에 이 공원에 온다",
    "latitude": 37.580667,
    "longitude": 127.00746
  },
  {
    "media": "365: 운명을 거스르는 1년",
    "name": "모나무르 복합문화공간 아산",
    "detail": "각계각층의 10인, 그러나 지형주(이준혁)와 신가현(남지현)을 포함해 일종의 트라우마를 겪은 이들은 모두 '시안 클리닉'으로 소환된다. 인생을 1년 전으로 되돌릴 수 있는 기회를 제공하고 운명을 바꿀 수 있는 능력을 갖게 되면서 시간 여행이 시작된다.",
    "latitude": 36.750552,
    "longitude": 126.99246
  },
  {
    "media": "49일",
    "name": "그랜드머큐어앰배서더 창원",
    "detail": "드라마의 '서울호텔'로 등장. 2회에서 신지현(남규리)이 송이경(이요원)의 몸으로 직장 증명서를 받는 모습이 그려졌다. 호텔을 산책하던 중 그녀는 약혼자의 외도를 알게 된다.",
    "latitude": 35.239262,
    "longitude": 128.65532
  },
  {
    "media": "49일",
    "name": "DMC첨단산업센터",
    "detail": "이 건물은 신인정(서지혜)의 직장으로 등장.",
    "latitude": 37.584874,
    "longitude": 126.88568
  },
  {
    "media": "49일",
    "name": "누브티스 성북동점",
    "detail": "드라마 등장인물인 한강(조현재)이 운영하는 천국카페로 등장한다. 한강 건축사무소는 이 건물 1층에 있습니다.",
    "latitude": 37.596295,
    "longitude": 126.9972
  },
  {
    "media": "49일",
    "name": "청계천",
    "detail": "1회에서는 신지현의 모습을 볼 수 있다. (남규리) 이 다리를 건너 결혼식장으로 간다.",
    "latitude": 37.569205,
    "longitude": 126.97791
  },
  {
    "media": "49일",
    "name": "중앙고등학교",
    "detail": "11회에서 한강(조현재)과 송이경(이요원)의 몸을 사용하는 신지현은 학창시절을 추억하기 위해 진안으로 각자 여행을 떠났을 때 이 학교에 와서 우연히 마주친다.",
    "latitude": 37.584081,
    "longitude": 126.986846
  },
  {
    "media": "49일",
    "name": "필운대로5가",
    "detail": "2회에서 잠에서 깨어난 송이경(이요원)의 몸으로 이 거리를 걷던 신지현(남규리)은 갑자기 스케줄러(정일우)가 나타나 누군가의 몸을 빌릴 때의 법칙을 상기시킨다.",
    "latitude": 37.579512,
    "longitude": 126.96846
  },
  {
    "media": "49일",
    "name": "대룡시장",
    "detail": "23회에서 거북당에서 박주현(장영함)이 오태석(주석래)에게 선물로 자켓을 사고 싶어하는 '영천시장'으로 등장한다.",
    "latitude": 37.782373,
    "longitude": 126.28007
  },
  {
    "media": "49일",
    "name": "마이산탑사",
    "detail": "11회에서 한강(조현재)은 암살자를 찾으러 이 절에 온다.",
    "latitude": 35.758494,
    "longitude": 127.411297
  },
  {
    "media": "49일",
    "name": "부귀 메타세쿼이아길",
    "detail": "11화에서 마이산 탑사로 가는 길에 이 거리를 운전한다.",
    "latitude": 35.807913,
    "longitude": 127.32207
  },
  {
    "media": "60일, 지정생존자",
    "name": "합천 영상 테마파크",
    "detail": "국회 폭발 직후의 장면이 이곳에서 촬영됐다.",
    "latitude": 35.5489346,
    "longitude": 128.072475
  },
  {
    "media": "60일, 지정생존자",
    "name": "국립대전현충원",
    "detail": "5회에서 '국회의사당 폭탄 테러 희생자 추도식'이 열리는 곳이 바로 이 묘지다.",
    "latitude": 36.369464,
    "longitude": 127.294854
  },
  {
    "media": "60일, 지정생존자",
    "name": "서강대교",
    "detail": "박무진(지진희 분)은 1회에서 이 다리 위를 운전하던 중 차를 들이받는다. 교통이 완전히 멈추고 그들은 차에서 내려 이 다리에서 국회의 폭발을 목격한다.",
    "latitude": 37.536911,
    "longitude": 126.92495
  },
  {
    "media": "60일, 지정생존자",
    "name": "한강 공원 여의도 지구",
    "detail": "윤찬경(배종옥 분)은 5회에서 이 공원에서 운동을 하는데, 그 뒤를 따라가지 못하는 비서가 따라온다.",
    "latitude": 37.5290674,
    "longitude": 126.936218
  },
  {
    "media": "60일, 지정생존자",
    "name": "국회의사당",
    "detail": "1화에서 이 건물에서 폭발이 일어난다. 여기에서 일하는 박무진(지진희)이 대통령이 되려 준비하다가 폭발사고 당일 현장 견학을 다녀온 딸이 살아 있는지 확인하기 위해 급히 달려온다.",
    "latitude": 37.531847,
    "longitude": 126.91411
  },
  {
    "media": "60일, 지정생존자",
    "name": "탑골공원",
    "detail": "3회에서 탈북자들이 국회 폭탄 테러 배후에 있다는 소문을 선동자들이 퍼뜨리는 곳이 바로 이 공원 앞이다.",
    "latitude": 37.57139,
    "longitude": 126.98877
  },
  {
    "media": "6시 내고향",
    "name": "성훈",
    "detail": "6시내고향 7572회 대구요리 맛집",
    "latitude": 37.7719317,
    "longitude": 128.9489348
  },
  {
    "media": "6시 내고향",
    "name": "묵꼬양 카페",
    "detail": "6시내고향 7512회 대추차 맛집",
    "latitude": 37.5527846,
    "longitude": 129.1123213
  },
  {
    "media": "6시 내고향",
    "name": "홍문어",
    "detail": "6시내고향 7569회 문어요리 맛집",
    "latitude": 37.2881692,
    "longitude": 129.3175727
  },
  {
    "media": "6시 내고향",
    "name": "러브마린 홍게도시락&홍게밀키트",
    "detail": "6시내고향 7609회 홍게도시락, 홍게라면밀키트 맛집",
    "latitude": 38.2046703,
    "longitude": 128.5894119
  },
  {
    "media": "6시 내고향",
    "name": "경기도은혜횟집",
    "detail": "6시내고향 7576회 오징어순대 맛집",
    "latitude": 38.2044495,
    "longitude": 128.5901534
  },
  {
    "media": "6시 내고향",
    "name": "현태네튀김",
    "detail": "6시내고향 7576회 왕새우튀김, 오징어순대, 홍게라면 맛집",
    "latitude": 38.2044495,
    "longitude": 128.5901534
  },
  {
    "media": "6시 내고향",
    "name": "황금어장수산",
    "detail": "6시내고향 7576회 물회 , 오징어회 맛집",
    "latitude": 38.2044495,
    "longitude": 128.5901534
  },
  {
    "media": "6시 내고향",
    "name": "속초동해닭강정",
    "detail": "6시내고향 7576회 닭강정 맛집",
    "latitude": 38.2044495,
    "longitude": 128.5901534
  },
  {
    "media": "6시 내고향",
    "name": "이부자마약곳간",
    "detail": "6시내고향 7576회 크런치벌꿀아이스크림 맛집",
    "latitude": 38.2044495,
    "longitude": 128.5901534
  },
  {
    "media": "6시 내고향",
    "name": "용천식당",
    "detail": "6시내고향 7571회 손칼국수, 장칼국수 맛집",
    "latitude": 38.0749389,
    "longitude": 128.6236931
  },
  {
    "media": "6시 내고향",
    "name": "마포숯불갈비 양양군5호점",
    "detail": "6시내고향 7571회 송이한우전골 맛집",
    "latitude": 38.0735945,
    "longitude": 128.6211526
  },
  {
    "media": "6시 내고향",
    "name": "남양주덕소횟집",
    "detail": "6시내고향 7651회 연어요리 맛집",
    "latitude": 37.9447787,
    "longitude": 128.785883
  },
  {
    "media": "6시 내고향",
    "name": "가도횟집",
    "detail": "6시내고향 7549회 부시리회 , 부시리조림, 부시리매운탕, 부시리전 맛집",
    "latitude": 38.0079932,
    "longitude": 128.7296392
  },
  {
    "media": "6시 내고향",
    "name": "산골황태3대식당",
    "detail": "6시내고향 7597회 황태요리 맛집",
    "latitude": 38.1809531,
    "longitude": 128.3086722
  },
  {
    "media": "6시 내고향",
    "name": "딸부잣집",
    "detail": "6시내고향 7570회 닭목살구이 맛집",
    "latitude": 37.2016291,
    "longitude": 128.8534095
  },
  {
    "media": "6시 내고향",
    "name": "연탄구이다원",
    "detail": "6시내고향 7570회 꼬들살구이 맛집",
    "latitude": 37.2015034,
    "longitude": 128.8538385
  },
  {
    "media": "6시 내고향",
    "name": "상상초콜릿",
    "detail": "6시내고향 7570회 감자빵, 마카롱 맛집",
    "latitude": 37.2012402,
    "longitude": 128.854098
  },
  {
    "media": "6시 내고향",
    "name": "같이",
    "detail": "6시내고향 7516회 명이김, 수리취떡 맛집",
    "latitude": 37.3803814,
    "longitude": 128.6644345
  },
  {
    "media": "6시 내고향",
    "name": "곤드레딱주기",
    "detail": "6시내고향 7516회 메밀부치기, 올챙이국수, 콧등치기국수 맛집",
    "latitude": 37.3803926,
    "longitude": 128.6651696
  },
  {
    "media": "6시 내고향",
    "name": "대룡산막국수",
    "detail": "6시내고향 7563회 막국수 맛집",
    "latitude": 37.8501902,
    "longitude": 127.7715849
  },
  {
    "media": "6시 내고향",
    "name": "태백닭갈비",
    "detail": "6시내고향 7574회 물닭갈비 맛집",
    "latitude": 37.1713636,
    "longitude": 128.9906517
  },
  {
    "media": "6시 내고향",
    "name": "연봉은정이네",
    "detail": "6시내고향 7536회 홍총떡 맛집",
    "latitude": 37.6912111,
    "longitude": 127.8860962
  },
  {
    "media": "6시 내고향",
    "name": "혜숙이네 홍총떡",
    "detail": "6시내고향 7536회 메밀묵사발, 손만두 맛집",
    "latitude": 37.6912111,
    "longitude": 127.8860962
  },
  {
    "media": "6시 내고향",
    "name": "서영이네",
    "detail": "6시내고향 7536회 곰피미역부각 맛집",
    "latitude": 37.6912111,
    "longitude": 127.8860962
  },
  {
    "media": "6시 내고향",
    "name": "웰빙오골계세상",
    "detail": "6시내고향 7535회 오골계요리 맛집",
    "latitude": 38.1004997,
    "longitude": 127.7254389
  },
  {
    "media": "6시 내고향",
    "name": "면사무소앞안흥찐빵",
    "detail": "6시내고향 7640회 안흥찐빵 맛집",
    "latitude": 37.4121228,
    "longitude": 128.1566176
  },
  {
    "media": "6시 내고향",
    "name": "콩두레식당",
    "detail": "6시내고향 7626회 손두부정식 맛집",
    "latitude": 37.8299053,
    "longitude": 127.5148549
  },
  {
    "media": "6시 내고향",
    "name": "옐로망고",
    "detail": "6시내고향 7626회 과일, 주스 맛집",
    "latitude": 37.8299053,
    "longitude": 127.5148549
  },
  {
    "media": "6시 내고향",
    "name": "먹거리마당",
    "detail": "6시내고향 7637회 녹두전, 홍어무침 맛집",
    "latitude": 37.6854332,
    "longitude": 126.7719863
  },
  {
    "media": "6시 내고향",
    "name": "부여옛날국수집",
    "detail": "6시내고향 7637회 오색국수 맛집",
    "latitude": 37.6857889,
    "longitude": 126.7706201
  },
  {
    "media": "6시 내고향",
    "name": "충남추어탕",
    "detail": "6시내고향 7539회 추어탕 맛집",
    "latitude": 37.5991573,
    "longitude": 127.1404433
  },
  {
    "media": "6시 내고향",
    "name": "대명횟집",
    "detail": "6시내고향 7564회 밴댕이 맛집",
    "latitude": 37.639589,
    "longitude": 126.5426013
  },
  {
    "media": "6시 내고향",
    "name": "30년전통청수면옥",
    "detail": "6시내고향 7548회 냉면 맛집",
    "latitude": 37.8993565,
    "longitude": 127.065859
  },
  {
    "media": "6시 내고향",
    "name": "진짜맛있는찬",
    "detail": "6시내고향 7623회 게장 맛집",
    "latitude": 37.4839808,
    "longitude": 126.7783387
  },
  {
    "media": "6시 내고향",
    "name": "윙스치킨",
    "detail": "6시내고향 7623회 치킨 맛집",
    "latitude": 37.4839567,
    "longitude": 126.779316
  },
  {
    "media": "6시 내고향",
    "name": "방가로두부이야기",
    "detail": "6시내고향 7530회 손두부 맛집",
    "latitude": 37.4567745,
    "longitude": 127.1642759
  },
  {
    "media": "6시 내고향",
    "name": "황금족발순대국",
    "detail": "6시내고향 7596회 온족발, 냉족발 맛집",
    "latitude": 37.2703105,
    "longitude": 127.0402021
  },
  {
    "media": "6시 내고향",
    "name": "도톰카페",
    "detail": "6시내고향 7596회 인절미크로플 맛집",
    "latitude": 37.2726127,
    "longitude": 127.0427493
  },
  {
    "media": "6시 내고향",
    "name": "먹촌",
    "detail": "6시내고향 7596회 파스타 맛집",
    "latitude": 37.2726127,
    "longitude": 127.0427493
  },
  {
    "media": "6시 내고향",
    "name": "팜쿠킹 건조도토리묵잡채 연잎밥",
    "detail": "6시내고향 7624회 건조도토리묵잡채밀키트 맛집",
    "latitude": 37.276842,
    "longitude": 127.0187071
  },
  {
    "media": "6시 내고향",
    "name": "지아베이커리",
    "detail": "6시내고향 7624회 휘낭시에 맛집",
    "latitude": 37.276842,
    "longitude": 127.0187071
  },
  {
    "media": "6시 내고향",
    "name": "금강패류",
    "detail": "6시내고향 7566회 대게찜, 바닷가재찜 맛집",
    "latitude": 37.3458472,
    "longitude": 126.6882008
  },
  {
    "media": "6시 내고향",
    "name": "목포수산",
    "detail": "6시내고향 7566회 광어회 맛집",
    "latitude": 37.3453926,
    "longitude": 126.6880766
  },
  {
    "media": "6시 내고향",
    "name": "북동삼거리손칼국수 대부도본점",
    "detail": "6시내고향 7569회 바지락볶음칼국수, 바지락닭칼국수, 해물파전 맛집",
    "latitude": 37.1924971,
    "longitude": 126.6460278
  },
  {
    "media": "6시 내고향",
    "name": "은성해물탕",
    "detail": "6시내고향 7593회 낙지연포탕, 해물찜 맛집",
    "latitude": 37.3355044,
    "longitude": 126.8071871
  },
  {
    "media": "6시 내고향",
    "name": "주주바 카페",
    "detail": "6시내고향 7629회 대추, 강정 맛집",
    "latitude": 37.0012312,
    "longitude": 127.3034371
  },
  {
    "media": "6시 내고향",
    "name": "산야초효소가든",
    "detail": "6시내고향 7629회 백숙 맛집",
    "latitude": 37.0457859,
    "longitude": 127.2735293
  },
  {
    "media": "6시 내고향",
    "name": "만복닭집",
    "detail": "6시내고향 7629회 치킨 맛집",
    "latitude": 37.0068767,
    "longitude": 127.2685546
  },
  {
    "media": "6시 내고향",
    "name": "한경식당",
    "detail": "6시내고향 7629회 한우국밥 맛집",
    "latitude": 37.0067638,
    "longitude": 127.2679276
  },
  {
    "media": "6시 내고향",
    "name": "안일옥 본점",
    "detail": "6시내고향 7607회 안성장터국밥 맛집",
    "latitude": 37.0076414,
    "longitude": 127.2728901
  },
  {
    "media": "6시 내고향",
    "name": "할머니네떡볶이",
    "detail": "6시내고향 7580회 떡볶이 맛집",
    "latitude": 37.3976235,
    "longitude": 126.9195788
  },
  {
    "media": "6시 내고향",
    "name": "박보성수제돈까스",
    "detail": "6시내고향 7580회 돈가스 맛집",
    "latitude": 37.3974089,
    "longitude": 126.9205509
  },
  {
    "media": "6시 내고향",
    "name": "신안감자탕 집밥",
    "detail": "6시내고향 7580회 묵은지닭볶음탕 맛집",
    "latitude": 37.3967048,
    "longitude": 126.9185037
  },
  {
    "media": "6시 내고향",
    "name": "농가맛집 매화당",
    "detail": "6시내고향 7622회 연푸국, 맥적구이 맛집",
    "latitude": 37.8938775,
    "longitude": 126.9574745
  },
  {
    "media": "6시 내고향",
    "name": "불고기맛난집",
    "detail": "6시내고향 7545회 연잎소불고기전골 맛집",
    "latitude": 37.5446915,
    "longitude": 127.3205768
  },
  {
    "media": "6시 내고향",
    "name": "창범이네맛집",
    "detail": "6시내고향 7545회 연근코다리조림 맛집",
    "latitude": 37.5449409,
    "longitude": 127.3197597
  },
  {
    "media": "6시 내고향",
    "name": "광이원",
    "detail": "6시내고향 7651회 한우불고기, 삼치구이, 더덕쌈 맛집",
    "latitude": 37.5074809,
    "longitude": 127.6058319
  },
  {
    "media": "6시 내고향",
    "name": "순흥식당",
    "detail": "6시내고향 7607회 백반 맛집",
    "latitude": 37.5554193,
    "longitude": 127.7091302
  },
  {
    "media": "6시 내고향",
    "name": "장단콩사랑",
    "detail": "6시내고향 7520회 두부 맛집",
    "latitude": 37.9727591,
    "longitude": 126.8863948
  },
  {
    "media": "6시 내고향",
    "name": "물향기만두 오산점",
    "detail": "6시내고향 7585회 표고만두 맛집",
    "latitude": 37.152593,
    "longitude": 127.0702029
  },
  {
    "media": "6시 내고향",
    "name": "또바기동태탕 본점",
    "detail": "6시내고향 7585회 동태내장두루치기, 동태스테이크 맛집",
    "latitude": 37.1495897,
    "longitude": 127.0691793
  },
  {
    "media": "6시 내고향",
    "name": "맛뜰",
    "detail": "6시내고향 7591회 견과류바, 강정 맛집",
    "latitude": 37.2363357,
    "longitude": 127.2065802
  },
  {
    "media": "6시 내고향",
    "name": "용인오복순대2호점",
    "detail": "6시내고향 7591회 족발, 순댓국 맛집",
    "latitude": 37.2371989,
    "longitude": 127.2067109
  },
  {
    "media": "6시 내고향",
    "name": "단골집",
    "detail": "6시내고향 7603회 돼지갈비, 오징어초무침 맛집",
    "latitude": 37.8292712,
    "longitude": 126.8371003
  },
  {
    "media": "6시 내고향",
    "name": "평택주물럭",
    "detail": "6시내고향 7578회 간장주물럭 맛집",
    "latitude": 36.9945668,
    "longitude": 127.0850306
  },
  {
    "media": "6시 내고향",
    "name": "바위섬가든",
    "detail": "6시내고향 7617회 이동갈비, 양념소갈비 맛집",
    "latitude": 38.0200862,
    "longitude": 127.3616385
  },
  {
    "media": "6시 내고향",
    "name": "곰비님비",
    "detail": "6시내고향 7614회 전 맛집",
    "latitude": 37.5380883,
    "longitude": 127.2066721
  },
  {
    "media": "6시 내고향",
    "name": "어수산",
    "detail": "6시내고향 7641회 중하새우요리 맛집",
    "latitude": 37.1153303,
    "longitude": 126.6837746
  },
  {
    "media": "6시 내고향",
    "name": "광복호",
    "detail": "6시내고향 7610회 전어 맛집",
    "latitude": 37.1157218,
    "longitude": 126.6821115
  },
  {
    "media": "6시 내고향",
    "name": "서해수산",
    "detail": "6시내고향 7610회 꽃게 맛집",
    "latitude": 37.1157218,
    "longitude": 126.6821115
  },
  {
    "media": "6시 내고향",
    "name": "거시기수산",
    "detail": "6시내고향 7554회 농어회 , 농어물회 , 농어맑은탕 맛집",
    "latitude": 37.1852402,
    "longitude": 126.6521424
  },
  {
    "media": "6시 내고향",
    "name": "가야한우마을",
    "detail": "6시내고향 7554회 한우구이, 한우채소불고기 맛집",
    "latitude": 34.9992172,
    "longitude": 128.3308097
  },
  {
    "media": "6시 내고향",
    "name": "군령포하모자연산횟집",
    "detail": "6시내고향 7589회 갯장어 맛집",
    "latitude": 34.9172326,
    "longitude": 128.2973173
  },
  {
    "media": "6시 내고향",
    "name": "으뜸왕만두",
    "detail": "6시내고향 7546회 김치왕만두, 고기왕만두 맛집",
    "latitude": 35.2332008,
    "longitude": 128.8660615
  },
  {
    "media": "6시 내고향",
    "name": "전통칼국수",
    "detail": "6시내고향 7546회 콩국, 냉콩칼국수, 식혜 맛집",
    "latitude": 35.2330138,
    "longitude": 128.8656058
  },
  {
    "media": "6시 내고향",
    "name": "남양식당",
    "detail": "6시내고향 7529회 멸치회 무침, 멸치쌈밥 맛집",
    "latitude": 34.7107024,
    "longitude": 128.0477778
  },
  {
    "media": "6시 내고향",
    "name": "베를린성",
    "detail": "6시내고향 7534회 소시지 맛집",
    "latitude": 34.7985431,
    "longitude": 128.0407582
  },
  {
    "media": "6시 내고향",
    "name": "뚜꺼비집",
    "detail": "6시내고향 7530회 갑오징어 맛집",
    "latitude": 34.7936993,
    "longitude": 128.052841
  },
  {
    "media": "6시 내고향",
    "name": "생선횟집",
    "detail": "6시내고향 7534회 우럭미역국, 해초회 비빔밥 맛집",
    "latitude": 34.9414499,
    "longitude": 127.8752047
  },
  {
    "media": "6시 내고향",
    "name": "금산횟집",
    "detail": "6시내고향 7579회 병어요리 맛집",
    "latitude": 34.7635456,
    "longitude": 127.9484812
  },
  {
    "media": "6시 내고향",
    "name": "대추나무집",
    "detail": "6시내고향 7630회 오리백숙, 손두부 맛집",
    "latitude": 35.4806682,
    "longitude": 128.9826376
  },
  {
    "media": "6시 내고향",
    "name": "북면오리농원",
    "detail": "6시내고향 7586회 오리탕 맛집",
    "latitude": 35.2222083,
    "longitude": 128.683374
  },
  {
    "media": "6시 내고향",
    "name": "먹거리천국 상남시장",
    "detail": "6시내고향 7586회 선짓국, 소고깃국, 추어탕 맛집",
    "latitude": 35.2222099,
    "longitude": 128.6834028
  },
  {
    "media": "6시 내고향",
    "name": "복도요거트",
    "detail": "6시내고향 7586회 요구르트 맛집",
    "latitude": 35.2222099,
    "longitude": 128.6834028
  },
  {
    "media": "6시 내고향",
    "name": "봉이포장마차",
    "detail": "6시내고향 7596회 고등어요리 맛집",
    "latitude": 34.6352978,
    "longitude": 128.2695876
  },
  {
    "media": "6시 내고향",
    "name": "하옹촌재첩식당",
    "detail": "6시내고향 7539회 재첩국/재첩회 무침 맛집",
    "latitude": 35.0584549,
    "longitude": 127.766922
  },
  {
    "media": "6시 내고향",
    "name": "섬진강횟집",
    "detail": "6시내고향 7544회 참게자리장국 맛집",
    "latitude": 35.0890712,
    "longitude": 127.7161906
  },
  {
    "media": "6시 내고향",
    "name": "하동재첩국",
    "detail": "6시내고향 7556회 재첩국 맛집",
    "latitude": 35.0695486,
    "longitude": 127.7484862
  },
  {
    "media": "6시 내고향",
    "name": "밤골집",
    "detail": "6시내고향 7556회 시래깃국 맛집",
    "latitude": 35.0699937,
    "longitude": 127.7483796
  },
  {
    "media": "6시 내고향",
    "name": "장터국밥",
    "detail": "6시내고향 7550회 은어튀김, 은어회 맛집",
    "latitude": 35.1880689,
    "longitude": 127.6238706
  },
  {
    "media": "6시 내고향",
    "name": "고향맛집",
    "detail": "6시내고향 7550회 재첩회 무침, 재첩국 맛집",
    "latitude": 35.1885809,
    "longitude": 127.6244502
  },
  {
    "media": "6시 내고향",
    "name": "대구식육식당",
    "detail": "6시내고향 7621회 소고기찌개 맛집",
    "latitude": 35.7927774,
    "longitude": 128.8759881
  },
  {
    "media": "6시 내고향",
    "name": "보문뜰",
    "detail": "6시내고향 7510회 한우물회 , 한우육회 비빔밥, 한우떡갈비 맛집",
    "latitude": 35.842737,
    "longitude": 129.2518071
  },
  {
    "media": "6시 내고향",
    "name": "부산찐빵",
    "detail": "6시내고향 7650회 찐빵, 찹쌀도넛 맛집",
    "latitude": 35.8420927,
    "longitude": 129.2175017
  },
  {
    "media": "6시 내고향",
    "name": "연화식당",
    "detail": "6시내고향 7527회 한식뷔페 맛집",
    "latitude": 35.8453317,
    "longitude": 129.2163579
  },
  {
    "media": "6시 내고향",
    "name": "장영선원조지례삼거리불고기",
    "detail": "6시내고향 7626회 흑돼지석쇠구이 맛집",
    "latitude": 35.9877835,
    "longitude": 128.0295931
  },
  {
    "media": "6시 내고향",
    "name": "바다친구회",
    "detail": "6시내고향 7628회 참돔 맛집",
    "latitude": 36.1167121,
    "longitude": 128.1249806
  },
  {
    "media": "6시 내고향",
    "name": "모심정",
    "detail": "6시내고향 7621회 묵조밥 맛집",
    "latitude": 36.6621547,
    "longitude": 128.119125
  },
  {
    "media": "6시 내고향",
    "name": "상차림식당 1호점",
    "detail": "6시내고향 7643회 사과돼지갈비 맛집",
    "latitude": 36.7355641,
    "longitude": 128.1074367
  },
  {
    "media": "6시 내고향",
    "name": "황토성",
    "detail": "6시내고향 7643회 족살찌개 맛집",
    "latitude": 36.760032,
    "longitude": 128.0780351
  },
  {
    "media": "6시 내고향",
    "name": "문경중앙시장협동조합",
    "detail": "6시내고향 7643회 건채밀키트 맛집",
    "latitude": 36.5948242,
    "longitude": 128.1984252
  },
  {
    "media": "6시 내고향",
    "name": "두락",
    "detail": "6시내고향 7652회 삼백음식한상 맛집",
    "latitude": 36.4067258,
    "longitude": 128.1819832
  },
  {
    "media": "6시 내고향",
    "name": "고바우식당",
    "detail": "6시내고향 7645회 선지국밥 맛집",
    "latitude": 35.914853,
    "longitude": 128.2857564
  },
  {
    "media": "6시 내고향",
    "name": "토석집",
    "detail": "6시내고향 7595회 안동식혜 맛집",
    "latitude": 36.5650879,
    "longitude": 128.7291232
  },
  {
    "media": "6시 내고향",
    "name": "안동시골찜닭",
    "detail": "6시내고향 7595회 찜닭 맛집",
    "latitude": 36.5655403,
    "longitude": 128.7273578
  },
  {
    "media": "6시 내고향",
    "name": "헛제사밥까치구멍집",
    "detail": "6시내고향 7564회 헛제사밥 맛집",
    "latitude": 36.5776887,
    "longitude": 128.7581391
  },
  {
    "media": "6시 내고향",
    "name": "김가네식당",
    "detail": "6시내고향 7599회 물가자미요리 맛집",
    "latitude": 36.5080938,
    "longitude": 129.4466265
  },
  {
    "media": "6시 내고향",
    "name": "홍삼품은낙지",
    "detail": "6시내고향 7631회 인삼왕갈비탕 맛집",
    "latitude": 36.8689533,
    "longitude": 128.5296037
  },
  {
    "media": "6시 내고향",
    "name": "영주전통묵집식당",
    "detail": "6시내고향 7631회 태평초 맛집",
    "latitude": 36.8258963,
    "longitude": 128.6289226
  },
  {
    "media": "6시 내고향",
    "name": "영월식당",
    "detail": "6시내고향 7531회 매운순대곱창전골 맛집",
    "latitude": 36.8238486,
    "longitude": 128.6229794
  },
  {
    "media": "6시 내고향",
    "name": "퍼즈유어셀프",
    "detail": "6시내고향 7516회 차 맛집",
    "latitude": 36.3846864,
    "longitude": 128.4355555
  },
  {
    "media": "6시 내고향",
    "name": "뿔난염소식당",
    "detail": "6시내고향 7618회 염소요리 맛집",
    "latitude": 36.3828361,
    "longitude": 128.6789965
  },
  {
    "media": "6시 내고향",
    "name": "농가맛집 두연",
    "detail": "6시내고향 7642회 청송사과밥상 맛집",
    "latitude": 36.4118445,
    "longitude": 129.0602664
  },
  {
    "media": "6시 내고향",
    "name": "포항해파랑맛집",
    "detail": "6시내고향 7538회 검은돌장어 맛집",
    "latitude": 36.0241057,
    "longitude": 129.5031563
  },
  {
    "media": "6시 내고향",
    "name": "풍년오리탕",
    "detail": "6시내고향 7583회 오리탕 맛집",
    "latitude": 35.1615827,
    "longitude": 126.905747
  },
  {
    "media": "6시 내고향",
    "name": "광신보리밥",
    "detail": "6시내고향 7652회 보리밥맛집",
    "latitude": 35.175866,
    "longitude": 126.9314893
  },
  {
    "media": "6시 내고향",
    "name": "만수네 떡갈비",
    "detail": "6시내고향 7653회 떡갈비 맛집",
    "latitude": 35.1538613,
    "longitude": 126.9021342
  },
  {
    "media": "6시 내고향",
    "name": "육각형국밥",
    "detail": "6시내고향 7653회 맑은돼지국밥 맛집",
    "latitude": 35.1538613,
    "longitude": 126.9021342
  },
  {
    "media": "6시 내고향",
    "name": "양동통닭",
    "detail": "6시내고향 7653회 통닭 맛집",
    "latitude": 35.1527557,
    "longitude": 126.9044724
  },
  {
    "media": "6시 내고향",
    "name": "동광김밥",
    "detail": "6시내고향 7613회 묵 맛집",
    "latitude": 35.8757382,
    "longitude": 128.6040838
  },
  {
    "media": "6시 내고향",
    "name": "진주식당",
    "detail": "6시내고향 7613회 닭곱창 맛집",
    "latitude": 35.8771723,
    "longitude": 128.6033615
  },
  {
    "media": "6시 내고향",
    "name": "영양만두식당",
    "detail": "6시내고향 7600회 도넛 맛집",
    "latitude": 35.8672602,
    "longitude": 128.5606236
  },
  {
    "media": "6시 내고향",
    "name": "고향보리밥칼국수",
    "detail": "6시내고향 7600회 보리비빔밥 맛집",
    "latitude": 35.8667547,
    "longitude": 128.5609932
  },
  {
    "media": "6시 내고향",
    "name": "신서문김밥",
    "detail": "6시내고향 7642회 오코노미김밥, 삼각비빔만두 맛집",
    "latitude": 35.8688497,
    "longitude": 128.5807879
  },
  {
    "media": "6시 내고향",
    "name": "재연이분식",
    "detail": "6시내고향 7642회 칼제비 맛집",
    "latitude": 35.8694647,
    "longitude": 128.5807674
  },
  {
    "media": "6시 내고향",
    "name": "서울치킨",
    "detail": "6시내고향 7647회 치킨 맛집",
    "latitude": 36.3297717,
    "longitude": 127.4316496
  },
  {
    "media": "6시 내고향",
    "name": "옛날손칼국수",
    "detail": "6시내고향 7626회 칼국수 맛집",
    "latitude": 36.3540697,
    "longitude": 127.3685334
  },
  {
    "media": "6시 내고향",
    "name": "가덕횟집",
    "detail": "6시내고향 7515회 숭어요리 맛집",
    "latitude": 35.0117274,
    "longitude": 128.8273933
  },
  {
    "media": "6시 내고향",
    "name": "월화횟집",
    "detail": "6시내고향 7652회 붕장어요리 맛집",
    "latitude": 35.2982662,
    "longitude": 129.2593989
  },
  {
    "media": "6시 내고향",
    "name": "동해물회",
    "detail": "6시내고향 7558회 물회 맛집",
    "latitude": 35.1579455,
    "longitude": 129.0613408
  },
  {
    "media": "6시 내고향",
    "name": "대상호",
    "detail": "6시내고향 7582회 성대요리 맛집",
    "latitude": 35.0707949,
    "longitude": 129.0189204
  },
  {
    "media": "6시 내고향",
    "name": "삼영횟집",
    "detail": "6시내고향 7579회 물회 맛집",
    "latitude": 35.0763075,
    "longitude": 129.0168124
  },
  {
    "media": "6시 내고향",
    "name": "북경상회",
    "detail": "6시내고향 7652회 손만두 맛집",
    "latitude": 35.1578294,
    "longitude": 129.1237967
  },
  {
    "media": "6시 내고향",
    "name": "운이네",
    "detail": "6시내고향 7542회 수구레국, 돼지갈비찜, 선짓국 맛집",
    "latitude": 35.0889872,
    "longitude": 129.0419154
  },
  {
    "media": "6시 내고향",
    "name": "구구숯불꼼장어활어회",
    "detail": "6시내고향 7542회 곰장어소금구이, 곰장어양념구이 맛집",
    "latitude": 35.08929,
    "longitude": 129.0424402
  },
  {
    "media": "6시 내고향",
    "name": "일번지자갈치산곰장어",
    "detail": "6시내고향 7581회 곰장어구이 맛집",
    "latitude": 35.1609948,
    "longitude": 129.1620392
  },
  {
    "media": "6시 내고향",
    "name": "차차온족발",
    "detail": "6시내고향 7581회 냉채족발 맛집",
    "latitude": 35.1613071,
    "longitude": 129.1619953
  },
  {
    "media": "6시 내고향",
    "name": "우아한바다",
    "detail": "6시내고향 7581회 모둠해산물 맛집",
    "latitude": 35.1614531,
    "longitude": 129.1620863
  },
  {
    "media": "6시 내고향",
    "name": "소문난 튀김 전",
    "detail": "6시내고향 7581회 전, 식혜 맛집",
    "latitude": 35.1617841,
    "longitude": 129.1624379
  },
  {
    "media": "6시 내고향",
    "name": "착한수산 해운대꽃새우대게",
    "detail": "6시내고향 7581회 독도새우 맛집",
    "latitude": 35.1618453,
    "longitude": 129.1628284
  },
  {
    "media": "6시 내고향",
    "name": "불오뎅 해운대시장점",
    "detail": "6시내고향 7581회 물떡 맛집",
    "latitude": 35.1622029,
    "longitude": 129.1631364
  },
  {
    "media": "6시 내고향",
    "name": "전주전집",
    "detail": "6시내고향 7561회 모둠전 맛집",
    "latitude": 37.5274385,
    "longitude": 127.1351394
  },
  {
    "media": "6시 내고향",
    "name": "동대문곱창볶음전문",
    "detail": "6시내고향 7618회 곱창볶음 맛집",
    "latitude": 37.4990502,
    "longitude": 126.9301849
  },
  {
    "media": "6시 내고향",
    "name": "촌놈떡갈비",
    "detail": "6시내고향 7618회 떡갈비 맛집",
    "latitude": 37.4992347,
    "longitude": 126.930957
  },
  {
    "media": "6시 내고향",
    "name": "우곳간 보라매점",
    "detail": "6시내고향 7580회 한우 맛집",
    "latitude": 37.4985203,
    "longitude": 126.9241248
  },
  {
    "media": "6시 내고향",
    "name": "신설집",
    "detail": "6시내고향 7617회 순댓국 맛집",
    "latitude": 36.529449,
    "longitude": 127.3680532
  },
  {
    "media": "6시 내고향",
    "name": "장터고래",
    "detail": "6시내고향 7526회 고래수육, 고래육회 맛집",
    "latitude": 35.5421717,
    "longitude": 129.3080808
  },
  {
    "media": "6시 내고향",
    "name": "시장식육불고기",
    "detail": "6시내고향 7522회 석쇠불고기 맛집",
    "latitude": 35.5634831,
    "longitude": 129.1259342
  },
  {
    "media": "6시 내고향",
    "name": "언양수산횟집",
    "detail": "6시내고향 7522회 용가자미물회 맛집",
    "latitude": 35.5634831,
    "longitude": 129.1259342
  },
  {
    "media": "6시 내고향",
    "name": "언양 알프스시장곰탕",
    "detail": "6시내고향 7522회 소머리곰탕 맛집",
    "latitude": 35.5633237,
    "longitude": 129.1263986
  },
  {
    "media": "6시 내고향",
    "name": "혜경네",
    "detail": "6시내고향 7537회 밴댕이 맛집",
    "latitude": 37.7422908,
    "longitude": 126.4921831
  },
  {
    "media": "6시 내고향",
    "name": "동막호",
    "detail": "6시내고향 7634회 망둑어요리 맛집",
    "latitude": 37.592079,
    "longitude": 126.4631373
  },
  {
    "media": "6시 내고향",
    "name": "대련호",
    "detail": "6시내고향 7513회 쭈꾸미 맛집",
    "latitude": 37.592079,
    "longitude": 126.4631373
  },
  {
    "media": "6시 내고향",
    "name": "그집민물매운탕",
    "detail": "6시내고향 7568회 어탕국수 맛집",
    "latitude": 37.5771553,
    "longitude": 126.7142395
  },
  {
    "media": "6시 내고향",
    "name": "일번가",
    "detail": "6시내고향 7525회 갯가재한상 맛집",
    "latitude": 37.3996808,
    "longitude": 126.7401542
  },
  {
    "media": "6시 내고향",
    "name": "시장짜장면",
    "detail": "6시내고향 7532회 짜장면, 유부짬뽕 맛집",
    "latitude": 37.4516747,
    "longitude": 126.6383219
  },
  {
    "media": "6시 내고향",
    "name": "명품돈가스",
    "detail": "6시내고향 7532회 돈가스 맛집",
    "latitude": 37.4513889,
    "longitude": 126.6377778
  },
  {
    "media": "6시 내고향",
    "name": "욕쟁이식당",
    "detail": "6시내고향 7566회 백합칼국수, 해물파전 맛집",
    "latitude": 37.5361549,
    "longitude": 126.3839432
  },
  {
    "media": "6시 내고향",
    "name": "은하호 비동",
    "detail": "6시내고향 7556회 광어회 , 광어매운탕, 참소라찜 맛집",
    "latitude": 37.2551229,
    "longitude": 126.4987281
  },
  {
    "media": "6시 내고향",
    "name": "도랫마을",
    "detail": "6시내고향 7619회 전어, 낙지요리 맛집",
    "latitude": 37.3830388,
    "longitude": 126.4104581
  },
  {
    "media": "6시 내고향",
    "name": "강진만갯벌탕",
    "detail": "6시내고향 7636회 짱뚱어요리 맛집",
    "latitude": 34.6402932,
    "longitude": 126.7747449
  },
  {
    "media": "6시 내고향",
    "name": "설성식당",
    "detail": "6시내고향 7563회 돼지불고기 맛집",
    "latitude": 34.7128194,
    "longitude": 126.8169916
  },
  {
    "media": "6시 내고향",
    "name": "비스커피",
    "detail": "6시내고향 7622회 토란디저트 맛집",
    "latitude": 35.2781224,
    "longitude": 127.292645
  },
  {
    "media": "6시 내고향",
    "name": "청솔가든",
    "detail": "6시내고향 7608회 은어튀김, 참게탕 맛집",
    "latitude": 35.18822,
    "longitude": 127.369361
  },
  {
    "media": "6시 내고향",
    "name": "쑥부쟁이 카페",
    "detail": "6시내고향 7509회 쑥부쟁이머핀 맛집",
    "latitude": 35.3144149,
    "longitude": 127.4558677
  },
  {
    "media": "6시 내고향",
    "name": "용궁가든",
    "detail": "6시내고향 7554회 민물매운탕 맛집",
    "latitude": 35.199213,
    "longitude": 127.5739769
  },
  {
    "media": "6시 내고향",
    "name": "홍어1번지",
    "detail": "6시내고향 7648회 홍어 맛집",
    "latitude": 34.9997025,
    "longitude": 126.7105033
  },
  {
    "media": "6시 내고향",
    "name": "주몽가든맛집",
    "detail": "6시내고향 7573회 삼계탕 맛집",
    "latitude": 34.9546948,
    "longitude": 126.7072877
  },